[{"id":210010,"name":"West Eifel Volcanic Field","country":"Germany","type":"Volcanic field","elevationM":600,"lastEruptionYear":-8300,"tectonicSetting":"Rift zone / Continental crust (> 25 km)","lat":50.17,"lon":6.85},{"id":210020,"name":"Chaine des Puys","country":"France","type":"Lava dome(s)","elevationM":1464,"lastEruptionYear":-4040,"tectonicSetting":"Rift zone / Continental crust (> 25 km)","lat":45.786,"lon":2.981},{"id":210030,"name":"Olot Volcanic Field","country":"Spain","type":"Volcanic field","elevationM":893,"lastEruptionYear":null,"tectonicSetting":"Intraplate / Continental crust (> 25 km)","lat":42.17,"lon":2.53},{"id":210040,"name":"Calatrava Volcanic Field","country":"Spain","type":"Volcanic field","elevationM":1117,"lastEruptionYear":-3600,"tectonicSetting":"Intraplate / Continental crust (> 25 km)","lat":38.87,"lon":-4.02},{"id":211004,"name":"Colli Albani","country":"Italy","type":"Caldera","elevationM":949,"lastEruptionYear":null,"tectonicSetting":"Subduction zone / Continental crust (> 25 km)","lat":41.7569,"lon":12.7251},{"id":211010,"name":"Campi Flegrei","country":"Italy","type":"Caldera","elevationM":458,"lastEruptionYear":1538,"tectonicSetting":"Subduction zone / Continental crust (> 25 km)","lat":40.827,"lon":14.139},{"id":211020,"name":"Vesuvius","country":"Italy","type":"Stratovolcano","elevationM":1281,"lastEruptionYear":1944,"tectonicSetting":"Subduction zone / Continental crust (> 25 km)","lat":40.821,"lon":14.426},{"id":211030,"name":"Ischia","country":"Italy","type":"Complex","elevationM":789,"lastEruptionYear":1302,"tectonicSetting":"Subduction zone / Continental crust (> 25 km)","lat":40.73,"lon":13.897},{"id":211031,"name":"Palinuro","country":"Italy","type":"Compound","elevationM":-70,"lastEruptionYear":-8040,"tectonicSetting":"Subduction zone / Continental crust (> 25 km)","lat":39.48,"lon":14.83},{"id":211040,"name":"Stromboli","country":"Italy","type":"Stratovolcano","elevationM":924,"lastEruptionYear":2026,"tectonicSetting":"Subduction zone / Continental crust (> 25 km)","lat":38.789,"lon":15.213},{"id":211041,"name":"Panarea","country":"Italy","type":"Stratovolcano","elevationM":399,"lastEruptionYear":null,"tectonicSetting":"Subduction zone / Continental crust (> 25 km)","lat":38.638,"lon":15.064},{"id":211042,"name":"Lipari","country":"Italy","type":"Stratovolcano(es)","elevationM":590,"lastEruptionYear":1230,"tectonicSetting":"Subduction zone / Continental crust (> 25 km)","lat":38.49,"lon":14.933},{"id":211050,"name":"Vulcano","country":"Italy","type":"Stratovolcano(es)","elevationM":500,"lastEruptionYear":1890,"tectonicSetting":"Subduction zone / Continental crust (> 25 km)","lat":38.404,"lon":14.962},{"id":211060,"name":"Etna","country":"Italy","type":"Stratovolcano(es)","elevationM":3357,"lastEruptionYear":2026,"tectonicSetting":"Subduction zone / Continental crust (> 25 km)","lat":37.748,"lon":14.999},{"id":211070,"name":"Campi Flegrei del Mar di Sicilia","country":"Italy","type":"Volcanic field","elevationM":-8,"lastEruptionYear":1867,"tectonicSetting":"Rift zone / Continental crust (> 25 km)","lat":37.1,"lon":12.7},{"id":211071,"name":"Pantelleria","country":"Italy","type":"Shield","elevationM":836,"lastEruptionYear":1891,"tectonicSetting":"Rift zone / Continental crust (> 25 km)","lat":36.77,"lon":12.02},{"id":211080,"name":"Marsili","country":"Italy","type":"Complex","elevationM":-779,"lastEruptionYear":-1050,"tectonicSetting":null,"lat":39.284,"lon":14.399},{"id":212020,"name":"Methana","country":"Greece","type":"Lava dome(s)","elevationM":380,"lastEruptionYear":-258,"tectonicSetting":"Subduction zone / Continental crust (> 25 km)","lat":37.6186,"lon":23.3331},{"id":212030,"name":"Milos","country":"Greece","type":"Stratovolcano(es)","elevationM":751,"lastEruptionYear":140,"tectonicSetting":"Subduction zone / Continental crust (> 25 km)","lat":36.699,"lon":24.439},{"id":212040,"name":"Santorini","country":"Greece","type":"Shield(s)","elevationM":367,"lastEruptionYear":1950,"tectonicSetting":"Subduction zone / Continental crust (> 25 km)","lat":36.404,"lon":25.396},{"id":212042,"name":"Kolumbo","country":"Greece","type":"Complex","elevationM":-18,"lastEruptionYear":1650,"tectonicSetting":null,"lat":36.524,"lon":25.483},{"id":212050,"name":"Nisyros","country":"Greece","type":"Stratovolcano","elevationM":698,"lastEruptionYear":1888,"tectonicSetting":"Subduction zone / Continental crust (> 25 km)","lat":36.5888,"lon":27.1553},{"id":213000,"name":"Kula","country":"Turkiye","type":"Volcanic field","elevationM":750,"lastEruptionYear":null,"tectonicSetting":"Intraplate / Continental crust (> 25 km)","lat":38.58,"lon":28.52},{"id":213002,"name":"Hasandag-Keciboyduran Volcanic Complex","country":"Turkiye","type":"Stratovolcano","elevationM":3253,"lastEruptionYear":null,"tectonicSetting":"Intraplate / Continental crust (> 25 km)","lat":38.13,"lon":34.17},{"id":213010,"name":"Erciyes Volcanic Complex","country":"Turkiye","type":"Stratovolcano","elevationM":3864,"lastEruptionYear":-6880,"tectonicSetting":"Intraplate / Continental crust (> 25 km)","lat":38.531,"lon":35.447},{"id":213011,"name":"Karaca Dag","country":"Turkiye","type":"Shield","elevationM":1957,"lastEruptionYear":null,"tectonicSetting":"Intraplate / Continental crust (> 25 km)","lat":37.67,"lon":39.83},{"id":213020,"name":"Nemrut Dagi","country":"Turkiye","type":"Stratovolcano","elevationM":2948,"lastEruptionYear":1650,"tectonicSetting":"Intraplate / Continental crust (> 25 km)","lat":38.654,"lon":42.229},{"id":213030,"name":"Tenduruk Dagi","country":"Turkiye","type":"Shield","elevationM":3514,"lastEruptionYear":1855,"tectonicSetting":"Intraplate / Continental crust (> 25 km)","lat":39.356,"lon":43.874},{"id":213040,"name":"Ararat","country":"Turkiye","type":"Stratovolcano","elevationM":5165,"lastEruptionYear":1840,"tectonicSetting":"Intraplate / Continental crust (> 25 km)","lat":39.7,"lon":44.3},{"id":214010,"name":"Elbrus","country":"Russia","type":"Stratovolcano","elevationM":5642,"lastEruptionYear":50,"tectonicSetting":"Intraplate / Continental crust (> 25 km)","lat":43.351,"lon":42.442},{"id":214020,"name":"Kazbek","country":"Georgia","type":"Stratovolcano","elevationM":5004,"lastEruptionYear":-750,"tectonicSetting":"Intraplate / Continental crust (> 25 km)","lat":42.697,"lon":44.5184},{"id":214050,"name":"Samsari Volcanic Center","country":"Georgia","type":"Volcanic field","elevationM":3290,"lastEruptionYear":null,"tectonicSetting":"Intraplate / Continental crust (> 25 km)","lat":41.542,"lon":43.7},{"id":214060,"name":"Aragats","country":"Armenia","type":"Stratovolcano","elevationM":4095,"lastEruptionYear":null,"tectonicSetting":"Intraplate / Continental crust (> 25 km)","lat":40.53,"lon":44.2},{"id":214070,"name":"Ghegham Volcanic Ridge","country":"Armenia","type":"Volcanic field","elevationM":3597,"lastEruptionYear":-1900,"tectonicSetting":"Intraplate / Continental crust (> 25 km)","lat":40.283,"lon":45},{"id":214080,"name":"Vaiyots-Sar","country":"Armenia","type":"Pyroclastic cone(s)","elevationM":2575,"lastEruptionYear":-2000,"tectonicSetting":"Intraplate / Continental crust (> 25 km)","lat":39.797,"lon":45.497},{"id":214090,"name":"Porak","country":"Armenia-Azerbaijan","type":"Volcanic field","elevationM":3029,"lastEruptionYear":-778,"tectonicSetting":"Intraplate / Continental crust (> 25 km)","lat":40.028,"lon":45.74},{"id":214100,"name":"Tskhouk-Karckar","country":"Armenia-Azerbaijan","type":"Pyroclastic cone(s)","elevationM":3139,"lastEruptionYear":-3000,"tectonicSetting":"Intraplate / Continental crust (> 25 km)","lat":39.742,"lon":45.992},{"id":221010,"name":"Tair, Jebel at","country":"Yemen","type":"Stratovolcano","elevationM":244,"lastEruptionYear":2008,"tectonicSetting":"Rift zone / Oceanic crust (< 15 km)","lat":15.55,"lon":41.83},{"id":221020,"name":"Zubair Group","country":"Yemen","type":"Shield","elevationM":191,"lastEruptionYear":2013,"tectonicSetting":"Rift zone / Oceanic crust (< 15 km)","lat":15.05,"lon":42.18},{"id":221021,"name":"Zukur","country":"Yemen","type":"Shield","elevationM":624,"lastEruptionYear":null,"tectonicSetting":"Rift zone / Oceanic crust (< 15 km)","lat":14.02,"lon":42.75},{"id":221022,"name":"Hanish","country":"Yemen","type":"Shield","elevationM":422,"lastEruptionYear":null,"tectonicSetting":"Rift zone / Oceanic crust (< 15 km)","lat":13.72,"lon":42.73},{"id":221040,"name":"Alid","country":"Eritrea","type":"Stratovolcano","elevationM":904,"lastEruptionYear":null,"tectonicSetting":"Rift zone / Intermediate crust (15-25 km)","lat":14.88,"lon":39.92},{"id":221041,"name":"Dallol","country":"Ethiopia","type":"Explosion crater(s)","elevationM":-48,"lastEruptionYear":2011,"tectonicSetting":"Rift zone / Intermediate crust (15-25 km)","lat":14.242,"lon":40.3},{"id":221050,"name":"Gada Ale","country":"Ethiopia","type":"Stratovolcano","elevationM":287,"lastEruptionYear":null,"tectonicSetting":"Rift zone / Intermediate crust (15-25 km)","lat":13.975,"lon":40.408},{"id":221060,"name":"Alu-Dalafilla","country":"Ethiopia","type":"Fissure vent(s)","elevationM":578,"lastEruptionYear":2008,"tectonicSetting":"Rift zone / Intermediate crust (15-25 km)","lat":13.793,"lon":40.553},{"id":221071,"name":"Bora Ale","country":"Ethiopia","type":"Stratovolcano","elevationM":668,"lastEruptionYear":null,"tectonicSetting":"Rift zone / Intermediate crust (15-25 km)","lat":13.725,"lon":40.6},{"id":221080,"name":"Erta Ale","country":"Ethiopia","type":"Shield","elevationM":585,"lastEruptionYear":2025,"tectonicSetting":"Rift zone / Intermediate crust (15-25 km)","lat":13.601,"lon":40.666},{"id":221090,"name":"Ale Bagu","country":"Ethiopia","type":"Stratovolcano","elevationM":988,"lastEruptionYear":null,"tectonicSetting":"Rift zone / Intermediate crust (15-25 km)","lat":13.512,"lon":40.631},{"id":221091,"name":"Hayli Gubbi","country":"Ethiopia","type":"Shield","elevationM":493,"lastEruptionYear":2025,"tectonicSetting":"Rift zone / Intermediate crust (15-25 km)","lat":13.5111,"lon":40.7161},{"id":221100,"name":"Dubbi","country":"Eritrea","type":"Stratovolcano","elevationM":1625,"lastEruptionYear":1861,"tectonicSetting":"Rift zone / Intermediate crust (15-25 km)","lat":13.579,"lon":41.809},{"id":221101,"name":"Nabro","country":"Eritrea","type":"Stratovolcano","elevationM":2218,"lastEruptionYear":2012,"tectonicSetting":"Rift zone / Intermediate crust (15-25 km)","lat":13.37,"lon":41.7},{"id":221102,"name":"Mallahle","country":"Ethiopia-Eritrea","type":"Stratovolcano","elevationM":1875,"lastEruptionYear":null,"tectonicSetting":"Rift zone / Intermediate crust (15-25 km)","lat":13.27,"lon":41.65},{"id":221103,"name":"Sork Ale","country":"Ethiopia-Eritrea","type":"Stratovolcano","elevationM":1611,"lastEruptionYear":null,"tectonicSetting":"Rift zone / Intermediate crust (15-25 km)","lat":13.18,"lon":41.725},{"id":221104,"name":"Asavyo","country":"Ethiopia","type":"Shield","elevationM":1338,"lastEruptionYear":null,"tectonicSetting":"Rift zone / Intermediate crust (15-25 km)","lat":13.098,"lon":41.599},{"id":221105,"name":"Mat Ala","country":"Ethiopia","type":"Shield","elevationM":493,"lastEruptionYear":null,"tectonicSetting":"Rift zone / Intermediate crust (15-25 km)","lat":13.106,"lon":41.161},{"id":221106,"name":"Tat Ali","country":"Ethiopia","type":"Shield","elevationM":655,"lastEruptionYear":null,"tectonicSetting":"Rift zone / Intermediate crust (15-25 km)","lat":13.284,"lon":41.063},{"id":221107,"name":"Borawli","country":"Ethiopia","type":"Stratovolcano","elevationM":784,"lastEruptionYear":null,"tectonicSetting":"Rift zone / Intermediate crust (15-25 km)","lat":13.304,"lon":40.987},{"id":221110,"name":"Afdera","country":"Ethiopia","type":"Stratovolcano","elevationM":1250,"lastEruptionYear":null,"tectonicSetting":"Rift zone / Intermediate crust (15-25 km)","lat":13.088,"lon":40.853},{"id":221111,"name":"Ma Alalta","country":"Ethiopia","type":"Stratovolcano","elevationM":1745,"lastEruptionYear":null,"tectonicSetting":"Rift zone / Intermediate crust (15-25 km)","lat":13.013,"lon":40.185},{"id":221112,"name":"Alayta","country":"Ethiopia","type":"Shield","elevationM":1496,"lastEruptionYear":1915,"tectonicSetting":"Rift zone / Intermediate crust (15-25 km)","lat":12.888,"lon":40.573},{"id":221113,"name":"Dabbahu","country":"Ethiopia","type":"Stratovolcano","elevationM":1401,"lastEruptionYear":2005,"tectonicSetting":"Rift zone / Intermediate crust (15-25 km)","lat":12.595,"lon":40.48},{"id":221114,"name":"Dabbayra","country":"Ethiopia","type":"Shield","elevationM":1302,"lastEruptionYear":null,"tectonicSetting":"Rift zone / Intermediate crust (15-25 km)","lat":12.38,"lon":40.07},{"id":221115,"name":"Manda Hararo","country":"Ethiopia","type":"Shield(s)","elevationM":600,"lastEruptionYear":2009,"tectonicSetting":"Rift zone / Intermediate crust (15-25 km)","lat":12.17,"lon":40.82},{"id":221116,"name":"Groppo","country":"Ethiopia","type":"Volcanic field","elevationM":852,"lastEruptionYear":null,"tectonicSetting":"Rift zone / Intermediate crust (15-25 km)","lat":11.816,"lon":40.242},{"id":221120,"name":"Kurub","country":"Ethiopia","type":"Shield","elevationM":625,"lastEruptionYear":null,"tectonicSetting":"Rift zone / Intermediate crust (15-25 km)","lat":11.88,"lon":41.208},{"id":221122,"name":"Manda-Inakir","country":"Ethiopia-Djibouti","type":"Fissure vent(s)","elevationM":600,"lastEruptionYear":1928,"tectonicSetting":"Rift zone / Intermediate crust (15-25 km)","lat":12.38,"lon":42.2},{"id":221123,"name":"Mousa Alli","country":"Ethiopia-Eritrea-Djibouti","type":"Stratovolcano","elevationM":1993,"lastEruptionYear":null,"tectonicSetting":"Rift zone / Intermediate crust (15-25 km)","lat":12.469,"lon":42.404},{"id":221124,"name":"Gufa","country":"Eritrea-Djibouti","type":"Volcanic field","elevationM":600,"lastEruptionYear":null,"tectonicSetting":"Rift zone / Intermediate crust (15-25 km)","lat":12.55,"lon":42.53},{"id":221125,"name":"Assab Volcanic Field","country":"Eritrea","type":"Volcanic field","elevationM":987,"lastEruptionYear":null,"tectonicSetting":"Rift zone / Intermediate crust (15-25 km)","lat":12.95,"lon":42.43},{"id":221126,"name":"Ardoukoba","country":"Djibouti","type":"Fissure vent(s)","elevationM":298,"lastEruptionYear":1978,"tectonicSetting":"Rift zone / Intermediate crust (15-25 km)","lat":11.58,"lon":42.47},{"id":221127,"name":"Manda Gargori","country":"Ethiopia","type":"Fissure vent(s)","elevationM":700,"lastEruptionYear":null,"tectonicSetting":"Rift zone / Intermediate crust (15-25 km)","lat":11.75,"lon":41.48},{"id":221141,"name":"Dama Ali","country":"Ethiopia","type":"Shield","elevationM":1068,"lastEruptionYear":1631,"tectonicSetting":"Rift zone / Intermediate crust (15-25 km)","lat":11.28,"lon":41.63},{"id":221150,"name":"Gabillema","country":"Ethiopia","type":"Stratovolcano","elevationM":1459,"lastEruptionYear":null,"tectonicSetting":"Rift zone / Intermediate crust (15-25 km)","lat":11.08,"lon":41.27},{"id":221151,"name":"Yangudi","country":"Ethiopia","type":"Complex","elevationM":1383,"lastEruptionYear":null,"tectonicSetting":"Rift zone / Intermediate crust (15-25 km)","lat":10.58,"lon":41.042},{"id":221160,"name":"Ayelu","country":"Ethiopia","type":"Stratovolcano","elevationM":2145,"lastEruptionYear":null,"tectonicSetting":"Rift zone / Intermediate crust (15-25 km)","lat":10.082,"lon":40.702},{"id":221170,"name":"Adwa","country":"Ethiopia","type":"Stratovolcano","elevationM":1670,"lastEruptionYear":null,"tectonicSetting":"Rift zone / Intermediate crust (15-25 km)","lat":10.063,"lon":40.831},{"id":221171,"name":"Hertali","country":"Ethiopia","type":"Fissure vent","elevationM":900,"lastEruptionYear":null,"tectonicSetting":"Rift zone / Intermediate crust (15-25 km)","lat":9.78,"lon":40.33},{"id":221172,"name":"Liado Hayk","country":"Ethiopia","type":"Volcanic field","elevationM":878,"lastEruptionYear":null,"tectonicSetting":"Rift zone / Continental crust (> 25 km)","lat":9.57,"lon":40.28},{"id":221180,"name":"Dofen","country":"Ethiopia","type":"Shield","elevationM":1151,"lastEruptionYear":null,"tectonicSetting":"Rift zone / Continental crust (> 25 km)","lat":9.35,"lon":40.13},{"id":221190,"name":"Fentale","country":"Ethiopia","type":"Stratovolcano","elevationM":2007,"lastEruptionYear":1789,"tectonicSetting":"Rift zone / Continental crust (> 25 km)","lat":8.985,"lon":39.906},{"id":221191,"name":"Beru","country":"Ethiopia","type":"Volcanic field","elevationM":1100,"lastEruptionYear":null,"tectonicSetting":"Rift zone / Continental crust (> 25 km)","lat":8.95,"lon":39.75},{"id":221200,"name":"Kone","country":"Ethiopia","type":"Caldera(s)","elevationM":1380,"lastEruptionYear":1820,"tectonicSetting":"Rift zone / Continental crust (> 25 km)","lat":8.8105,"lon":39.6946},{"id":221210,"name":"Boset","country":"Ethiopia","type":"Stratovolcano(es)","elevationM":2447,"lastEruptionYear":null,"tectonicSetting":"Rift zone / Continental crust (> 25 km)","lat":8.558,"lon":39.475},{"id":221220,"name":"Bishoftu Volcanic Field","country":"Ethiopia","type":"Volcanic field","elevationM":1850,"lastEruptionYear":null,"tectonicSetting":"Rift zone / Continental crust (> 25 km)","lat":8.78,"lon":38.98},{"id":221222,"name":"Melkassa","country":"Ethiopia","type":"Volcanic field","elevationM":1765,"lastEruptionYear":null,"tectonicSetting":"Intraplate / Continental crust (> 25 km)","lat":8.43,"lon":39.35},{"id":221230,"name":"Gedemsa","country":"Ethiopia","type":"Caldera","elevationM":1909,"lastEruptionYear":null,"tectonicSetting":"Rift zone / Continental crust (> 25 km)","lat":8.363,"lon":39.172},{"id":221250,"name":"Bora-Bericha-Tullu Moye","country":"Ethiopia","type":"Pyroclastic cone","elevationM":2345,"lastEruptionYear":1900,"tectonicSetting":"Rift zone / Continental crust (> 25 km)","lat":8.2114,"lon":39.0812},{"id":221252,"name":"East Ziway","country":"Ethiopia","type":"Fissure vent(s)","elevationM":1889,"lastEruptionYear":null,"tectonicSetting":"Rift zone / Continental crust (> 25 km)","lat":7.874,"lon":38.902},{"id":221260,"name":"Butajiri-Silti Field","country":"Ethiopia","type":"Volcanic field","elevationM":2281,"lastEruptionYear":null,"tectonicSetting":"Rift zone / Continental crust (> 25 km)","lat":8.05,"lon":38.35},{"id":221270,"name":"Aluto","country":"Ethiopia","type":"Stratovolcano","elevationM":2335,"lastEruptionYear":1550,"tectonicSetting":"Rift zone / Continental crust (> 25 km)","lat":7.77,"lon":38.78},{"id":221280,"name":"Shala","country":"Ethiopia","type":"Caldera","elevationM":2075,"lastEruptionYear":null,"tectonicSetting":"Rift zone / Continental crust (> 25 km)","lat":7.4569,"lon":38.5571},{"id":221290,"name":"Corbetti","country":"Ethiopia","type":"Caldera","elevationM":2289,"lastEruptionYear":-396,"tectonicSetting":"Rift zone / Continental crust (> 25 km)","lat":7.193,"lon":38.39},{"id":221291,"name":"Bilate River Field","country":"Ethiopia","type":"Volcanic field","elevationM":1700,"lastEruptionYear":null,"tectonicSetting":"Intraplate / Continental crust (> 25 km)","lat":7.07,"lon":38.1},{"id":221294,"name":"Northern Lake Abaya Volcanic Field","country":"Ethiopia","type":"Volcanic field","elevationM":1594,"lastEruptionYear":null,"tectonicSetting":"Intraplate / Continental crust (> 25 km)","lat":6.76,"lon":37.97},{"id":221320,"name":"Korath Range","country":"Ethiopia","type":"Tuff cone(s)","elevationM":912,"lastEruptionYear":null,"tectonicSetting":"Rift zone / Intermediate crust (15-25 km)","lat":5.117,"lon":35.892},{"id":221330,"name":"Mega Volcanic Field","country":"Ethiopia","type":"Volcanic field","elevationM":1500,"lastEruptionYear":null,"tectonicSetting":"Rift zone / Intermediate crust (15-25 km)","lat":3.971,"lon":38.213},{"id":222001,"name":"Lake Turkana North Island","country":"Kenya","type":"Tuff cone(s)","elevationM":490,"lastEruptionYear":null,"tectonicSetting":"Rift zone / Continental crust (> 25 km)","lat":4.0631,"lon":36.0458},{"id":222010,"name":"Lake Turkana Central Island","country":"Kenya","type":"Tuff cone(s)","elevationM":518,"lastEruptionYear":null,"tectonicSetting":"Rift zone / Continental crust (> 25 km)","lat":3.496,"lon":36.0365},{"id":222020,"name":"Lake Turkana South Island","country":"Kenya","type":"Stratovolcano","elevationM":800,"lastEruptionYear":1888,"tectonicSetting":"Rift zone / Continental crust (> 25 km)","lat":2.6364,"lon":36.5958},{"id":222021,"name":"Marsabit","country":"Kenya","type":"Shield","elevationM":1707,"lastEruptionYear":null,"tectonicSetting":"Rift zone / Continental crust (> 25 km)","lat":2.32,"lon":37.97},{"id":222030,"name":"Barrier, The","country":"Kenya","type":"Shield","elevationM":1032,"lastEruptionYear":1921,"tectonicSetting":"Rift zone / Continental crust (> 25 km)","lat":2.32,"lon":36.57},{"id":222040,"name":"Namarunu","country":"Kenya","type":"Shield","elevationM":817,"lastEruptionYear":-6550,"tectonicSetting":"Rift zone / Continental crust (> 25 km)","lat":1.98,"lon":36.43},{"id":222050,"name":"Segererua Plateau","country":"Kenya","type":"Pyroclastic cone(s)","elevationM":699,"lastEruptionYear":null,"tectonicSetting":"Rift zone / Continental crust (> 25 km)","lat":1.57,"lon":37.9},{"id":222051,"name":"Emuruangogolak","country":"Kenya","type":"Shield","elevationM":1285,"lastEruptionYear":1910,"tectonicSetting":"Rift zone / Continental crust (> 25 km)","lat":1.5,"lon":36.33},{"id":222052,"name":"Silali","country":"Kenya","type":"Shield","elevationM":1528,"lastEruptionYear":-5050,"tectonicSetting":"Rift zone / Continental crust (> 25 km)","lat":1.15,"lon":36.23},{"id":222053,"name":"Paka","country":"Kenya","type":"Shield","elevationM":1697,"lastEruptionYear":-7550,"tectonicSetting":"Rift zone / Continental crust (> 25 km)","lat":0.92,"lon":36.18},{"id":222054,"name":"Korosi","country":"Kenya","type":"Shield","elevationM":1446,"lastEruptionYear":null,"tectonicSetting":"Rift zone / Continental crust (> 25 km)","lat":0.77,"lon":36.12},{"id":222055,"name":"Ol Kokwe","country":"Kenya","type":"Shield","elevationM":1130,"lastEruptionYear":null,"tectonicSetting":"Rift zone / Continental crust (> 25 km)","lat":0.62,"lon":36.075},{"id":222056,"name":"Nyambeni Hills","country":"Kenya","type":"Shield","elevationM":750,"lastEruptionYear":null,"tectonicSetting":"Rift zone / Continental crust (> 25 km)","lat":0.23,"lon":37.87},{"id":222060,"name":"Menengai","country":"Kenya","type":"Shield","elevationM":2278,"lastEruptionYear":-6050,"tectonicSetting":"Rift zone / Continental crust (> 25 km)","lat":-0.2,"lon":36.07},{"id":222070,"name":"Homa Mountain","country":"Kenya","type":"Complex","elevationM":1751,"lastEruptionYear":null,"tectonicSetting":"Rift zone / Continental crust (> 25 km)","lat":-0.38,"lon":34.5},{"id":222071,"name":"Elmenteita Badlands","country":"Kenya","type":"Pyroclastic cone(s)","elevationM":2126,"lastEruptionYear":null,"tectonicSetting":"Rift zone / Continental crust (> 25 km)","lat":-0.546,"lon":36.249},{"id":222080,"name":"Eburru, Ol Doinyo","country":"Kenya","type":"Complex","elevationM":2856,"lastEruptionYear":null,"tectonicSetting":"Rift zone / Continental crust (> 25 km)","lat":-0.65,"lon":36.22},{"id":222090,"name":"Olkaria","country":"Kenya","type":"Pyroclastic cone(s)","elevationM":2434,"lastEruptionYear":1770,"tectonicSetting":"Rift zone / Continental crust (> 25 km)","lat":-0.904,"lon":36.292},{"id":222100,"name":"Longonot","country":"Kenya","type":"Stratovolcano","elevationM":2776,"lastEruptionYear":1863,"tectonicSetting":"Rift zone / Continental crust (> 25 km)","lat":-0.914,"lon":36.446},{"id":222110,"name":"Suswa","country":"Kenya","type":"Shield","elevationM":2356,"lastEruptionYear":null,"tectonicSetting":"Rift zone / Continental crust (> 25 km)","lat":-1.151,"lon":36.357},{"id":222120,"name":"Lengai, Ol Doinyo","country":"Tanzania","type":"Stratovolcano","elevationM":2962,"lastEruptionYear":2026,"tectonicSetting":"Rift zone / Continental crust (> 25 km)","lat":-2.764,"lon":35.914},{"id":222130,"name":"Chyulu Hills","country":"Kenya","type":"Volcanic field","elevationM":2188,"lastEruptionYear":1855,"tectonicSetting":"Rift zone / Continental crust (> 25 km)","lat":-2.68,"lon":37.88},{"id":222160,"name":"Meru","country":"Tanzania","type":"Stratovolcano","elevationM":4550,"lastEruptionYear":1910,"tectonicSetting":"Rift zone / Continental crust (> 25 km)","lat":-3.244,"lon":36.75},{"id":222164,"name":"Ngozi","country":"Tanzania","type":"Caldera","elevationM":2614,"lastEruptionYear":1450,"tectonicSetting":"Rift zone / Continental crust (> 25 km)","lat":-9.0036,"lon":33.552},{"id":222166,"name":"Rungwe","country":"Tanzania","type":"Stratovolcano","elevationM":2953,"lastEruptionYear":1250,"tectonicSetting":"Rift zone / Continental crust (> 25 km)","lat":-9.135,"lon":33.668},{"id":222170,"name":"Kyejo","country":"Tanzania","type":"Stratovolcano","elevationM":2176,"lastEruptionYear":1800,"tectonicSetting":"Rift zone / Continental crust (> 25 km)","lat":-9.229,"lon":33.792},{"id":223001,"name":"Fort Portal Volcanic Field","country":"Uganda","type":"Volcanic field","elevationM":1615,"lastEruptionYear":-2120,"tectonicSetting":"Rift zone / Continental crust (> 25 km)","lat":0.7,"lon":30.25},{"id":223002,"name":"Ndali-Kasenda Volcanic Field","country":"Uganda","type":"Volcanic field","elevationM":1300,"lastEruptionYear":null,"tectonicSetting":"Rift zone / Continental crust (> 25 km)","lat":0.4583,"lon":30.275},{"id":223020,"name":"Nyamulagira","country":"DR Congo","type":"Shield","elevationM":3058,"lastEruptionYear":2026,"tectonicSetting":"Rift zone / Continental crust (> 25 km)","lat":-1.408,"lon":29.2},{"id":223030,"name":"Nyiragongo","country":"DR Congo","type":"Stratovolcano","elevationM":3470,"lastEruptionYear":2026,"tectonicSetting":"Rift zone / Continental crust (> 25 km)","lat":-1.52,"lon":29.25},{"id":223040,"name":"Karisimbi","country":"DR Congo-Rwanda","type":"Stratovolcano","elevationM":4490,"lastEruptionYear":-8050,"tectonicSetting":"Rift zone / Continental crust (> 25 km)","lat":-1.506,"lon":29.45},{"id":223045,"name":"Mugogo","country":"DR Congo","type":"Cone","elevationM":2338,"lastEruptionYear":1957,"tectonicSetting":"Rift zone / Continental crust (> 25 km)","lat":-1.3687,"lon":29.48},{"id":224004,"name":"Basile, Pico","country":"Equatorial Guinea","type":"Shield","elevationM":2999,"lastEruptionYear":1923,"tectonicSetting":"Intraplate / Continental crust (> 25 km)","lat":3.588,"lon":8.762},{"id":224010,"name":"Cameroon","country":"Cameroon","type":"Stratovolcano","elevationM":4095,"lastEruptionYear":2000,"tectonicSetting":"Intraplate / Continental crust (> 25 km)","lat":4.203,"lon":9.17},{"id":224011,"name":"Tombel Graben","country":"Cameroon","type":"Volcanic field","elevationM":500,"lastEruptionYear":null,"tectonicSetting":"Intraplate / Continental crust (> 25 km)","lat":4.758,"lon":9.717},{"id":224030,"name":"Oku Volcanic Field","country":"Cameroon","type":"Volcanic field","elevationM":3011,"lastEruptionYear":null,"tectonicSetting":"Intraplate / Continental crust (> 25 km)","lat":6.25,"lon":10.5},{"id":225001,"name":"Todra Volcanic Field","country":"Niger","type":"Volcanic field","elevationM":1780,"lastEruptionYear":null,"tectonicSetting":"Intraplate / Continental crust (> 25 km)","lat":17.68,"lon":8.5},{"id":225004,"name":"Tahalra Volcanic Field","country":"Algeria","type":"Volcanic field","elevationM":1467,"lastEruptionYear":null,"tectonicSetting":"Intraplate / Continental crust (> 25 km)","lat":22.67,"lon":5},{"id":225005,"name":"Atakor Volcanic Field","country":"Algeria","type":"Volcanic field","elevationM":2918,"lastEruptionYear":null,"tectonicSetting":"Intraplate / Continental crust (> 25 km)","lat":23.33,"lon":5.83},{"id":225006,"name":"Manzaz Volcanic Field","country":"Algeria","type":"Volcanic field","elevationM":1672,"lastEruptionYear":null,"tectonicSetting":"Intraplate / Continental crust (> 25 km)","lat":23.92,"lon":5.83},{"id":225009,"name":"Toh, Tarso","country":"Chad","type":"Volcanic field","elevationM":2000,"lastEruptionYear":null,"tectonicSetting":"Intraplate / Continental crust (> 25 km)","lat":21.33,"lon":16.33},{"id":225010,"name":"Tousside, Tarso","country":"Chad","type":"Stratovolcano","elevationM":3299,"lastEruptionYear":null,"tectonicSetting":"Intraplate / Continental crust (> 25 km)","lat":21.0408,"lon":16.473},{"id":225020,"name":"Voon, Tarso","country":"Chad","type":"Stratovolcano","elevationM":3100,"lastEruptionYear":null,"tectonicSetting":"Intraplate / Continental crust (> 25 km)","lat":20.92,"lon":17.28},{"id":225021,"name":"Koussi, Emi","country":"Chad","type":"Shield(pyroclastic)","elevationM":3415,"lastEruptionYear":null,"tectonicSetting":"Intraplate / Continental crust (> 25 km)","lat":19.8,"lon":18.53},{"id":225030,"name":"Marra, Jebel","country":"Sudan","type":"Volcanic field","elevationM":3042,"lastEruptionYear":-2000,"tectonicSetting":"Intraplate / Continental crust (> 25 km)","lat":12.95,"lon":24.27},{"id":225040,"name":"Kutum Volcanic Field","country":"Sudan","type":"Volcanic field","elevationM":1779,"lastEruptionYear":null,"tectonicSetting":"Intraplate / Continental crust (> 25 km)","lat":14.57,"lon":25.85},{"id":225050,"name":"Meidob Volcanic Field","country":"Sudan","type":"Volcanic field","elevationM":2000,"lastEruptionYear":-2950,"tectonicSetting":"Intraplate / Continental crust (> 25 km)","lat":15.32,"lon":26.47},{"id":225060,"name":"Bayuda Volcanic Field","country":"Sudan","type":"Volcanic field","elevationM":670,"lastEruptionYear":850,"tectonicSetting":"Intraplate / Continental crust (> 25 km)","lat":18.33,"lon":32.75},{"id":231001,"name":"Ash Shaam, Harrat","country":"Syria-Jordan-Saudi Arabia","type":"Volcanic field","elevationM":1100,"lastEruptionYear":-2670,"tectonicSetting":"Intraplate / Continental crust (> 25 km)","lat":32.333,"lon":37.583},{"id":231040,"name":"Lunayyir, Harrat","country":"Saudi Arabia","type":"Volcanic field","elevationM":1370,"lastEruptionYear":1000,"tectonicSetting":"Intraplate / Continental crust (> 25 km)","lat":25.17,"lon":37.75},{"id":231050,"name":"Ithnayn, Harrat","country":"Saudi Arabia","type":"Volcanic field","elevationM":1625,"lastEruptionYear":null,"tectonicSetting":"Intraplate / Continental crust (> 25 km)","lat":26.58,"lon":40.2},{"id":231060,"name":"Khaybar, Harrat","country":"Saudi Arabia","type":"Volcanic field","elevationM":2093,"lastEruptionYear":650,"tectonicSetting":"Intraplate / Continental crust (> 25 km)","lat":25.5,"lon":40},{"id":231070,"name":"Rahat, Harrat","country":"Saudi Arabia","type":"Volcanic field","elevationM":1744,"lastEruptionYear":1256,"tectonicSetting":"Intraplate / Continental crust (> 25 km)","lat":23.08,"lon":39.78},{"id":231071,"name":"Kishb, Harrat","country":"Saudi Arabia","type":"Volcanic field","elevationM":1475,"lastEruptionYear":null,"tectonicSetting":"Intraplate / Continental crust (> 25 km)","lat":22.8,"lon":41.38},{"id":231072,"name":"Birk, Harrat al","country":"Saudi Arabia","type":"Volcanic field","elevationM":587,"lastEruptionYear":null,"tectonicSetting":"Intraplate / Continental crust (> 25 km)","lat":18.37,"lon":41.63},{"id":231080,"name":"Yar, Jabal","country":"Saudi Arabia","type":"Volcanic field","elevationM":305,"lastEruptionYear":1810,"tectonicSetting":"Intraplate / Continental crust (> 25 km)","lat":17.05,"lon":42.83},{"id":231090,"name":"Arhab, Harra of","country":"Yemen","type":"Volcanic field","elevationM":3100,"lastEruptionYear":500,"tectonicSetting":"Intraplate / Continental crust (> 25 km)","lat":15.6025,"lon":44.0978},{"id":231110,"name":"Haylan, Jabal","country":"Yemen","type":"Volcanic field","elevationM":1550,"lastEruptionYear":-1200,"tectonicSetting":"Intraplate / Continental crust (> 25 km)","lat":15.4,"lon":45.1},{"id":231120,"name":"Dhamar, Harras of","country":"Yemen","type":"Volcanic field","elevationM":3500,"lastEruptionYear":null,"tectonicSetting":"Intraplate / Continental crust (> 25 km)","lat":14.57,"lon":44.67},{"id":231160,"name":"Sawad, Harra Es-","country":"Yemen","type":"Volcanic field","elevationM":1737,"lastEruptionYear":1253,"tectonicSetting":"Intraplate / Continental crust (> 25 km)","lat":13.58,"lon":46.12},{"id":231170,"name":"Balhaf-Bir Ali Volcanic Field","country":"Yemen","type":"Volcanic field","elevationM":604,"lastEruptionYear":null,"tectonicSetting":"Intraplate / Continental crust (> 25 km)","lat":14.067,"lon":48.3},{"id":231180,"name":"Bir Borhut","country":"Yemen","type":"Volcanic field","elevationM":464,"lastEruptionYear":null,"tectonicSetting":"Intraplate / Continental crust (> 25 km)","lat":15.515,"lon":50.935},{"id":232010,"name":"Damavand","country":"Iran","type":"Stratovolcano","elevationM":5670,"lastEruptionYear":-5350,"tectonicSetting":"Intraplate / Continental crust (> 25 km)","lat":35.951,"lon":52.109},{"id":233001,"name":"Grille, La","country":"Union of the Comoros","type":"Shield","elevationM":1064,"lastEruptionYear":null,"tectonicSetting":"Intraplate / Oceanic crust (< 15 km)","lat":-11.4861,"lon":43.35},{"id":233005,"name":"Mayotte","country":"France","type":"Shield","elevationM":660,"lastEruptionYear":-2050,"tectonicSetting":"Intraplate / Oceanic crust (< 15 km)","lat":-12.83,"lon":45.17},{"id":233010,"name":"Karthala","country":"Union of the Comoros","type":"Shield","elevationM":2350,"lastEruptionYear":2007,"tectonicSetting":"Intraplate / Oceanic crust (< 15 km)","lat":-11.7658,"lon":43.3639},{"id":233020,"name":"Fournaise, Piton de la","country":"France","type":"Shield","elevationM":2632,"lastEruptionYear":2026,"tectonicSetting":"Intraplate / Oceanic crust (< 15 km)","lat":-21.244,"lon":55.708},{"id":233040,"name":"Fani Maore","country":"France","type":"Cone","elevationM":-2500,"lastEruptionYear":2019,"tectonicSetting":"Intraplate / Oceanic crust (< 15 km)","lat":-12.9121,"lon":45.7075},{"id":234000,"name":"Boomerang Seamount","country":"France","type":"Caldera","elevationM":-650,"lastEruptionYear":1995,"tectonicSetting":"Rift zone / Oceanic crust (< 15 km)","lat":-37.7216,"lon":77.8221},{"id":234001,"name":"Amsterdam Island","country":"France","type":"Stratovolcano","elevationM":881,"lastEruptionYear":null,"tectonicSetting":"Rift zone / Oceanic crust (< 15 km)","lat":-37.83,"lon":77.52},{"id":234002,"name":"St. Paul","country":"France","type":"Stratovolcano","elevationM":268,"lastEruptionYear":1793,"tectonicSetting":"Rift zone / Oceanic crust (< 15 km)","lat":-38.72,"lon":77.53},{"id":234010,"name":"Heard","country":"Australia","type":"Stratovolcano","elevationM":2745,"lastEruptionYear":2026,"tectonicSetting":"Intraplate / Oceanic crust (< 15 km)","lat":-53.106,"lon":73.513},{"id":234011,"name":"McDonald Islands","country":"Australia","type":"Complex","elevationM":263,"lastEruptionYear":2005,"tectonicSetting":"Intraplate / Oceanic crust (< 15 km)","lat":-53.0394,"lon":72.595},{"id":234020,"name":"Kerguelen Islands","country":"France","type":"Stratovolcano(es)","elevationM":1840,"lastEruptionYear":null,"tectonicSetting":"Intraplate / Oceanic crust (< 15 km)","lat":-49.58,"lon":69.5},{"id":234030,"name":"Est, Ile de l'","country":"France","type":"Stratovolcano","elevationM":1090,"lastEruptionYear":null,"tectonicSetting":"Rift zone / Oceanic crust (< 15 km)","lat":-46.43,"lon":52.2},{"id":234040,"name":"Possession, Ile de la","country":"France","type":"Stratovolcano","elevationM":934,"lastEruptionYear":null,"tectonicSetting":"Rift zone / Oceanic crust (< 15 km)","lat":-46.42,"lon":51.75},{"id":234050,"name":"Cochons, Ile aux","country":"France","type":"Stratovolcano","elevationM":775,"lastEruptionYear":null,"tectonicSetting":"Rift zone / Oceanic crust (< 15 km)","lat":-46.1,"lon":50.23},{"id":234060,"name":"Prince Edward Island","country":"South Africa","type":"Shield","elevationM":672,"lastEruptionYear":null,"tectonicSetting":"Rift zone / Oceanic crust (< 15 km)","lat":-46.63,"lon":37.95},{"id":234070,"name":"Marion Island","country":"South Africa","type":"Shield(s)","elevationM":1230,"lastEruptionYear":2004,"tectonicSetting":"Rift zone / Oceanic crust (< 15 km)","lat":-46.9,"lon":37.75},{"id":241020,"name":"Auckland Volcanic Field","country":"New Zealand","type":"Volcanic field","elevationM":260,"lastEruptionYear":1446,"tectonicSetting":"Intraplate / Continental crust (> 25 km)","lat":-36.89,"lon":174.81},{"id":241021,"name":"Tuhua/Mayor Island","country":"New Zealand","type":"Shield","elevationM":355,"lastEruptionYear":-5055,"tectonicSetting":"Subduction zone / Continental crust (> 25 km)","lat":-37.28,"lon":176.25},{"id":241030,"name":"Taranaki","country":"New Zealand","type":"Stratovolcano","elevationM":2518,"lastEruptionYear":1800,"tectonicSetting":"Subduction zone / Continental crust (> 25 km)","lat":-39.3,"lon":174.07},{"id":241040,"name":"Whakaari/White Island","country":"New Zealand","type":"Stratovolcano(es)","elevationM":294,"lastEruptionYear":2026,"tectonicSetting":"Subduction zone / Continental crust (> 25 km)","lat":-37.52,"lon":177.18},{"id":241050,"name":"Okataina","country":"New Zealand","type":"Lava dome(s)","elevationM":1111,"lastEruptionYear":1981,"tectonicSetting":"Subduction zone / Continental crust (> 25 km)","lat":-38.1569,"lon":176.5069},{"id":241070,"name":"Taupo","country":"New Zealand","type":"Caldera","elevationM":760,"lastEruptionYear":260,"tectonicSetting":"Subduction zone / Continental crust (> 25 km)","lat":-38.7811,"lon":175.893},{"id":241080,"name":"Tongariro","country":"New Zealand","type":"Stratovolcano(es)","elevationM":1978,"lastEruptionYear":2012,"tectonicSetting":"Subduction zone / Continental crust (> 25 km)","lat":-39.157,"lon":175.632},{"id":241100,"name":"Ruapehu","country":"New Zealand","type":"Stratovolcano","elevationM":2797,"lastEruptionYear":2007,"tectonicSetting":"Subduction zone / Continental crust (> 25 km)","lat":-39.28,"lon":175.57},{"id":241101,"name":"Clark","country":"New Zealand","type":"Stratovolcano","elevationM":-860,"lastEruptionYear":null,"tectonicSetting":"Subduction zone / Oceanic crust (< 15 km)","lat":-36.446,"lon":177.839},{"id":241102,"name":"Tangaroa","country":"New Zealand","type":"Stratovolcano","elevationM":-600,"lastEruptionYear":null,"tectonicSetting":"Subduction zone / Oceanic crust (< 15 km)","lat":-36.321,"lon":178.028},{"id":241110,"name":"Rumble V","country":"New Zealand","type":"Stratovolcano","elevationM":-400,"lastEruptionYear":null,"tectonicSetting":"Subduction zone / Oceanic crust (< 15 km)","lat":-36.142,"lon":178.196},{"id":241120,"name":"Rumble IV","country":"New Zealand","type":"Stratovolcano","elevationM":-500,"lastEruptionYear":null,"tectonicSetting":"Subduction zone / Oceanic crust (< 15 km)","lat":-36.13,"lon":178.05},{"id":241130,"name":"Rumble III","country":"New Zealand","type":"Stratovolcano","elevationM":-220,"lastEruptionYear":2008,"tectonicSetting":"Subduction zone / Oceanic crust (< 15 km)","lat":-35.745,"lon":178.478},{"id":241131,"name":"Rumble II West","country":"New Zealand","type":"Stratovolcano","elevationM":-1200,"lastEruptionYear":null,"tectonicSetting":"Subduction zone / Oceanic crust (< 15 km)","lat":-35.353,"lon":178.527},{"id":241140,"name":"Healy","country":"New Zealand","type":"Stratovolcano","elevationM":-980,"lastEruptionYear":1360,"tectonicSetting":"Subduction zone / Oceanic crust (< 15 km)","lat":-35.004,"lon":178.973},{"id":241150,"name":"Brothers","country":"New Zealand","type":"Caldera","elevationM":-1350,"lastEruptionYear":null,"tectonicSetting":"Subduction zone / Oceanic crust (< 15 km)","lat":-34.875,"lon":179.0667},{"id":242001,"name":"Wright","country":"New Zealand","type":"Stratovolcano(es)","elevationM":-900,"lastEruptionYear":null,"tectonicSetting":"Subduction zone / Oceanic crust (< 15 km)","lat":-31.85,"lon":-179.18},{"id":242005,"name":"Havre Seamount","country":"New Zealand","type":"Stratovolcano","elevationM":-897,"lastEruptionYear":2012,"tectonicSetting":"Subduction zone / Oceanic crust (< 15 km)","lat":-31.08,"lon":-179.033},{"id":242010,"name":"Curtis Island","country":"New Zealand","type":"Stratovolcano","elevationM":47,"lastEruptionYear":null,"tectonicSetting":"Subduction zone / Oceanic crust (< 15 km)","lat":-30.543,"lon":-178.556},{"id":242021,"name":"Macauley","country":"New Zealand","type":"Caldera","elevationM":238,"lastEruptionYear":-4360,"tectonicSetting":"Subduction zone / Oceanic crust (< 15 km)","lat":-30.21,"lon":-178.475},{"id":242022,"name":"Giggenbach","country":"New Zealand","type":"Stratovolcano","elevationM":-65,"lastEruptionYear":null,"tectonicSetting":"Subduction zone / Oceanic crust (< 15 km)","lat":-30.036,"lon":-178.712},{"id":242030,"name":"Raoul Island","country":"New Zealand","type":"Stratovolcano","elevationM":516,"lastEruptionYear":2006,"tectonicSetting":"Subduction zone / Oceanic crust (< 15 km)","lat":-29.27,"lon":-177.92},{"id":242050,"name":"Monowai","country":"New Zealand","type":"Stratovolcano","elevationM":-132,"lastEruptionYear":2014,"tectonicSetting":"Subduction zone / Oceanic crust (< 15 km)","lat":-25.887,"lon":-177.188},{"id":243001,"name":"Kermadec Arc at 24.8\u00b0S","country":"Tonga","type":"Stratovolcano","elevationM":-385,"lastEruptionYear":null,"tectonicSetting":"Subduction zone / Oceanic crust (< 15 km)","lat":-24.8,"lon":-177.02},{"id":243010,"name":"Tofua Arc at 21.3\u00b0S","country":"Tonga","type":"Stratovolcano","elevationM":-68,"lastEruptionYear":1932,"tectonicSetting":"Subduction zone / Oceanic crust (< 15 km)","lat":-21.338,"lon":-175.65},{"id":243011,"name":"Tofua Arc at 21.1\u00b0S","country":"Tonga","type":"Stratovolcano","elevationM":-65,"lastEruptionYear":null,"tectonicSetting":"Subduction zone / Oceanic crust (< 15 km)","lat":-21.15,"lon":-175.75},{"id":243030,"name":"Tofua Arc at 20.9\u00b0S","country":"Tonga","type":"Stratovolcano","elevationM":-296,"lastEruptionYear":2017,"tectonicSetting":"Subduction zone / Oceanic crust (< 15 km)","lat":-20.852,"lon":-175.55},{"id":243040,"name":"Hunga Tonga-Hunga Ha'apai","country":"Tonga","type":"Caldera","elevationM":114,"lastEruptionYear":2022,"tectonicSetting":"Subduction zone / Oceanic crust (< 15 km)","lat":-20.5532,"lon":-175.3841},{"id":243050,"name":"Fonuafo'ou","country":"Tonga","type":"Stratovolcano","elevationM":-17,"lastEruptionYear":1936,"tectonicSetting":"Subduction zone / Oceanic crust (< 15 km)","lat":-20.32,"lon":-175.42},{"id":243060,"name":"Tofua","country":"Tonga","type":"Caldera","elevationM":515,"lastEruptionYear":2026,"tectonicSetting":"Subduction zone / Oceanic crust (< 15 km)","lat":-19.75,"lon":-175.07},{"id":243061,"name":"Kao","country":"Tonga","type":"Stratovolcano","elevationM":1009,"lastEruptionYear":1847,"tectonicSetting":"Subduction zone / Oceanic crust (< 15 km)","lat":-19.668,"lon":-175.016},{"id":243070,"name":"Lateiki","country":"Tonga","type":"Stratovolcano","elevationM":43,"lastEruptionYear":2019,"tectonicSetting":"Subduction zone / Oceanic crust (< 15 km)","lat":-19.18,"lon":-174.87},{"id":243080,"name":"Home Reef","country":"Tonga","type":"Stratovolcano","elevationM":-10,"lastEruptionYear":2026,"tectonicSetting":"Subduction zone / Oceanic crust (< 15 km)","lat":-18.992,"lon":-174.775},{"id":243090,"name":"Late","country":"Tonga","type":"Stratovolcano","elevationM":540,"lastEruptionYear":1854,"tectonicSetting":"Subduction zone / Oceanic crust (< 15 km)","lat":-18.806,"lon":-174.65},{"id":243091,"name":"Tofua Arc at 18.3\u00b0S","country":"Tonga","type":"Stratovolcano","elevationM":-40,"lastEruptionYear":2019,"tectonicSetting":"Subduction zone / Oceanic crust (< 15 km)","lat":-18.325,"lon":-174.365},{"id":243100,"name":"Fonualei","country":"Tonga","type":"Stratovolcano","elevationM":188,"lastEruptionYear":1957,"tectonicSetting":"Subduction zone / Oceanic crust (< 15 km)","lat":-18.023,"lon":-174.317},{"id":243101,"name":"Tafahi","country":"Tonga","type":"Stratovolcano","elevationM":546,"lastEruptionYear":null,"tectonicSetting":"Subduction zone / Oceanic crust (< 15 km)","lat":-15.854,"lon":-173.747},{"id":243102,"name":"Curacoa","country":"Tonga","type":"Complex","elevationM":-33,"lastEruptionYear":1979,"tectonicSetting":"Subduction zone / Oceanic crust (< 15 km)","lat":-15.62,"lon":-173.67},{"id":243110,"name":"Niuafo'ou","country":"Tonga","type":"Shield","elevationM":260,"lastEruptionYear":1946,"tectonicSetting":"Subduction zone / Oceanic crust (< 15 km)","lat":-15.6,"lon":-175.63},{"id":243111,"name":"Dugong","country":"Tonga","type":"Shield","elevationM":-1170,"lastEruptionYear":null,"tectonicSetting":null,"lat":-15.431,"lon":-175.725},{"id":243112,"name":"Lobster","country":"Tonga","type":"Shield","elevationM":-1500,"lastEruptionYear":null,"tectonicSetting":null,"lat":-15.333,"lon":-176.283},{"id":243120,"name":"Tafu-Maka","country":"Tonga","type":"Fissure vent","elevationM":-1400,"lastEruptionYear":2008,"tectonicSetting":"Rift zone / Oceanic crust (< 15 km)","lat":-15.37,"lon":-174.23},{"id":243130,"name":"West Mata","country":"Tonga","type":"Fissure vent(s)","elevationM":-1174,"lastEruptionYear":2009,"tectonicSetting":"Subduction zone / Oceanic crust (< 15 km)","lat":-15.1,"lon":-173.75},{"id":243140,"name":"Niuatahi","country":"Tonga","type":"Caldera","elevationM":-1270,"lastEruptionYear":null,"tectonicSetting":"Subduction zone / Oceanic crust (< 15 km)","lat":-15.3675,"lon":-174.0028},{"id":244000,"name":"Vailulu'u","country":"United States","type":"Shield","elevationM":-592,"lastEruptionYear":2003,"tectonicSetting":"Subduction zone / Oceanic crust (< 15 km)","lat":-14.215,"lon":-169.058},{"id":244001,"name":"Ta'u","country":"United States","type":"Shield","elevationM":931,"lastEruptionYear":null,"tectonicSetting":"Subduction zone / Oceanic crust (< 15 km)","lat":-14.23,"lon":-169.454},{"id":244010,"name":"Ofu-Olosega","country":"United States","type":"Shield(s)","elevationM":639,"lastEruptionYear":1866,"tectonicSetting":"Subduction zone / Oceanic crust (< 15 km)","lat":-14.175,"lon":-169.618},{"id":244020,"name":"Tutuila","country":"United States","type":"Tuff cone(s)","elevationM":653,"lastEruptionYear":440,"tectonicSetting":"Subduction zone / Oceanic crust (< 15 km)","lat":-14.2903,"lon":-170.7019},{"id":244021,"name":"Malumalu","country":"United States","type":"Stratovolcano","elevationM":-145,"lastEruptionYear":null,"tectonicSetting":"Intraplate / Oceanic crust (< 15 km)","lat":-14.601,"lon":-169.787},{"id":244030,"name":"Upolu","country":"Samoa","type":"Shield","elevationM":1100,"lastEruptionYear":null,"tectonicSetting":"Subduction zone / Oceanic crust (< 15 km)","lat":-13.935,"lon":-171.72},{"id":244040,"name":"Savaii","country":"Samoa","type":"Shield","elevationM":1858,"lastEruptionYear":1911,"tectonicSetting":"Subduction zone / Oceanic crust (< 15 km)","lat":-13.612,"lon":-172.525},{"id":245010,"name":"Taveuni","country":"Fiji","type":"Shield","elevationM":1241,"lastEruptionYear":1550,"tectonicSetting":"Subduction zone / Crustal thickness unknown","lat":-16.8412,"lon":-179.9644},{"id":245030,"name":"Nabukelevu","country":"Fiji","type":"Lava dome(s)","elevationM":791,"lastEruptionYear":1660,"tectonicSetting":"Subduction zone / Crustal thickness unknown","lat":-19.1181,"lon":177.9815},{"id":250010,"name":"St. Andrew Strait","country":"Papua New Guinea","type":"Complex","elevationM":270,"lastEruptionYear":1957,"tectonicSetting":"Subduction zone / Oceanic crust (< 15 km)","lat":-2.38,"lon":147.35},{"id":250030,"name":"Titan Ridge","country":"Papua New Guinea","type":"Fissure vent","elevationM":-1300,"lastEruptionYear":1972,"tectonicSetting":"Rift zone / Continental crust (> 25 km)","lat":-3.03,"lon":147.78},{"id":251001,"name":"Blup Blup","country":"Papua New Guinea","type":"Stratovolcano","elevationM":402,"lastEruptionYear":null,"tectonicSetting":"Subduction zone / Continental crust (> 25 km)","lat":-3.507,"lon":144.605},{"id":251002,"name":"Kadovar","country":"Papua New Guinea","type":"Stratovolcano","elevationM":365,"lastEruptionYear":2023,"tectonicSetting":"Subduction zone / Continental crust (> 25 km)","lat":-3.608,"lon":144.588},{"id":251010,"name":"Bam","country":"Papua New Guinea","type":"Stratovolcano","elevationM":685,"lastEruptionYear":1960,"tectonicSetting":"Subduction zone / Continental crust (> 25 km)","lat":-3.613,"lon":144.818},{"id":251020,"name":"Manam","country":"Papua New Guinea","type":"Stratovolcano","elevationM":1807,"lastEruptionYear":2026,"tectonicSetting":"Subduction zone / Continental crust (> 25 km)","lat":-4.08,"lon":145.037},{"id":251030,"name":"Karkar","country":"Papua New Guinea","type":"Stratovolcano","elevationM":1839,"lastEruptionYear":1979,"tectonicSetting":"Subduction zone / Continental crust (> 25 km)","lat":-4.647,"lon":145.976},{"id":251041,"name":"Hankow Reef","country":"Papua New Guinea","type":"Stratovolcano","elevationM":-5,"lastEruptionYear":null,"tectonicSetting":"Subduction zone / Continental crust (> 25 km)","lat":-4.883,"lon":146.717},{"id":251050,"name":"Long Island","country":"Papua New Guinea","type":"Complex","elevationM":1263,"lastEruptionYear":1993,"tectonicSetting":"Subduction zone / Continental crust (> 25 km)","lat":-5.3144,"lon":147.105},{"id":251060,"name":"Umboi","country":"Papua New Guinea","type":"Complex","elevationM":1335,"lastEruptionYear":null,"tectonicSetting":"Subduction zone / Continental crust (> 25 km)","lat":-5.592,"lon":147.892},{"id":251070,"name":"Ritter Island","country":"Papua New Guinea","type":"Stratovolcano","elevationM":75,"lastEruptionYear":2007,"tectonicSetting":"Subduction zone / Continental crust (> 25 km)","lat":-5.519,"lon":148.115},{"id":251080,"name":"Sakar","country":"Papua New Guinea","type":"Stratovolcano","elevationM":947,"lastEruptionYear":null,"tectonicSetting":"Subduction zone / Continental crust (> 25 km)","lat":-5.4098,"lon":148.0836},{"id":252010,"name":"Langila","country":"Papua New Guinea","type":"Complex","elevationM":1330,"lastEruptionYear":2026,"tectonicSetting":"Subduction zone / Continental crust (> 25 km)","lat":-5.525,"lon":148.42},{"id":252040,"name":"Dakataua","country":"Papua New Guinea","type":"Caldera","elevationM":408,"lastEruptionYear":1895,"tectonicSetting":"Subduction zone / Continental crust (> 25 km)","lat":-5.0455,"lon":150.0996},{"id":252050,"name":"Bola","country":"Papua New Guinea","type":"Stratovolcano","elevationM":1116,"lastEruptionYear":null,"tectonicSetting":"Subduction zone / Continental crust (> 25 km)","lat":-5.141,"lon":150.038},{"id":252060,"name":"Garua Harbour","country":"Papua New Guinea","type":"Volcanic field","elevationM":565,"lastEruptionYear":null,"tectonicSetting":"Subduction zone / Continental crust (> 25 km)","lat":-5.3,"lon":150.07},{"id":252070,"name":"Krummel-Garbuna-Welcker","country":"Papua New Guinea","type":"Stratovolcano(es)","elevationM":564,"lastEruptionYear":2008,"tectonicSetting":"Subduction zone / Continental crust (> 25 km)","lat":-5.416,"lon":150.027},{"id":252071,"name":"Lolo","country":"Papua New Guinea","type":"Stratovolcano","elevationM":796,"lastEruptionYear":null,"tectonicSetting":"Subduction zone / Continental crust (> 25 km)","lat":-5.466,"lon":150.509},{"id":252080,"name":"Witori","country":"Papua New Guinea","type":"Caldera","elevationM":724,"lastEruptionYear":2012,"tectonicSetting":"Subduction zone / Continental crust (> 25 km)","lat":-5.5745,"lon":150.5161},{"id":252090,"name":"Sulu Range","country":"Papua New Guinea","type":"Stratovolcano(es)","elevationM":610,"lastEruptionYear":null,"tectonicSetting":"Subduction zone / Continental crust (> 25 km)","lat":-5.5,"lon":150.942},{"id":252100,"name":"Hargy","country":"Papua New Guinea","type":"Stratovolcano","elevationM":1148,"lastEruptionYear":950,"tectonicSetting":"Subduction zone / Continental crust (> 25 km)","lat":-5.33,"lon":151.1},{"id":252110,"name":"Bamus","country":"Papua New Guinea","type":"Stratovolcano","elevationM":2248,"lastEruptionYear":1886,"tectonicSetting":"Subduction zone / Continental crust (> 25 km)","lat":-5.2,"lon":151.23},{"id":252120,"name":"Ulawun","country":"Papua New Guinea","type":"Stratovolcano","elevationM":2334,"lastEruptionYear":2025,"tectonicSetting":"Subduction zone / Continental crust (> 25 km)","lat":-5.05,"lon":151.33},{"id":252130,"name":"Lolobau","country":"Papua New Guinea","type":"Caldera","elevationM":878,"lastEruptionYear":1912,"tectonicSetting":"Subduction zone / Continental crust (> 25 km)","lat":-4.9156,"lon":151.1617},{"id":252140,"name":"Rabaul","country":"Papua New Guinea","type":"Caldera","elevationM":688,"lastEruptionYear":2014,"tectonicSetting":"Subduction zone / Continental crust (> 25 km)","lat":-4.2459,"lon":152.1937},{"id":252150,"name":"Tavui","country":"Papua New Guinea","type":"Caldera","elevationM":200,"lastEruptionYear":-4946,"tectonicSetting":"Subduction zone / Continental crust (> 25 km)","lat":-4.1089,"lon":152.2134},{"id":253010,"name":"Lamington","country":"Papua New Guinea","type":"Stratovolcano","elevationM":1680,"lastEruptionYear":1956,"tectonicSetting":"Subduction zone / Continental crust (> 25 km)","lat":-8.95,"lon":148.15},{"id":253011,"name":"Hydrographers Range","country":"Papua New Guinea","type":"Stratovolcano","elevationM":1915,"lastEruptionYear":null,"tectonicSetting":"Subduction zone / Continental crust (> 25 km)","lat":-9,"lon":148.37},{"id":253021,"name":"Managlase Plateau","country":"Papua New Guinea","type":"Volcanic field","elevationM":1342,"lastEruptionYear":null,"tectonicSetting":"Subduction zone / Continental crust (> 25 km)","lat":-9.08,"lon":148.33},{"id":253030,"name":"Victory","country":"Papua New Guinea","type":"Stratovolcano","elevationM":1832,"lastEruptionYear":1935,"tectonicSetting":"Subduction zone / Continental crust (> 25 km)","lat":-9.2003,"lon":149.072},{"id":253040,"name":"Sessagara Hills","country":"Papua New Guinea","type":"Volcanic field","elevationM":493,"lastEruptionYear":1944,"tectonicSetting":"Subduction zone / Continental crust (> 25 km)","lat":-9.5542,"lon":149.1278},{"id":253041,"name":"Goodenough","country":"Papua New Guinea","type":"Volcanic field","elevationM":220,"lastEruptionYear":null,"tectonicSetting":"Subduction zone / Continental crust (> 25 km)","lat":-9.358,"lon":150.246},{"id":253050,"name":"Iamalele","country":"Papua New Guinea","type":"Lava dome(s)","elevationM":194,"lastEruptionYear":null,"tectonicSetting":"Subduction zone / Continental crust (> 25 km)","lat":-9.5056,"lon":150.5239},{"id":253060,"name":"Dawson Strait Group","country":"Papua New Guinea","type":"Volcanic field","elevationM":500,"lastEruptionYear":1350,"tectonicSetting":"Subduction zone / Continental crust (> 25 km)","lat":-9.62,"lon":150.88},{"id":255010,"name":"Balbi","country":"Papua New Guinea","type":"Stratovolcano","elevationM":2715,"lastEruptionYear":null,"tectonicSetting":"Subduction zone / Crustal thickness unknown","lat":-5.9156,"lon":155.0008},{"id":255011,"name":"Billy Mitchell","country":"Papua New Guinea","type":"Caldera","elevationM":1544,"lastEruptionYear":1580,"tectonicSetting":"Subduction zone / Crustal thickness unknown","lat":-6.0898,"lon":155.2254},{"id":255020,"name":"Bagana","country":"Papua New Guinea","type":"Lava cone","elevationM":1855,"lastEruptionYear":2026,"tectonicSetting":"Subduction zone / Crustal thickness unknown","lat":-6.137,"lon":155.196},{"id":255021,"name":"Takuan Group","country":"Papua New Guinea","type":"Compound","elevationM":2210,"lastEruptionYear":null,"tectonicSetting":"Subduction zone / Crustal thickness unknown","lat":-6.442,"lon":155.608},{"id":255030,"name":"Loloru","country":"Papua New Guinea","type":"Compound","elevationM":1887,"lastEruptionYear":-1050,"tectonicSetting":"Subduction zone / Crustal thickness unknown","lat":-6.52,"lon":155.62},{"id":255050,"name":"Simbo","country":"Solomon Islands","type":"Stratovolcano(es)","elevationM":335,"lastEruptionYear":1910,"tectonicSetting":"Subduction zone / Crustal thickness unknown","lat":-8.292,"lon":156.52},{"id":255052,"name":"Kana Keoki","country":"Solomon Islands","type":"Stratovolcano","elevationM":-700,"lastEruptionYear":null,"tectonicSetting":"Subduction zone / Crustal thickness unknown","lat":-8.75,"lon":157.03},{"id":255053,"name":"Coleman Seamount","country":"Solomon Islands","type":"Stratovolcano","elevationM":-717,"lastEruptionYear":null,"tectonicSetting":"Subduction zone / Crustal thickness unknown","lat":-8.841,"lon":157.16},{"id":255060,"name":"Kavachi","country":"Solomon Islands","type":"Stratovolcano","elevationM":-20,"lastEruptionYear":2014,"tectonicSetting":"Subduction zone / Crustal thickness unknown","lat":-8.991,"lon":157.979},{"id":255061,"name":"New Georgia at 8.9\u00b0S","country":"Solomon Islands","type":"Stratovolcano","elevationM":-240,"lastEruptionYear":null,"tectonicSetting":"Subduction zone / Crustal thickness unknown","lat":-8.92,"lon":158.03},{"id":255070,"name":"Savo","country":"Solomon Islands","type":"Stratovolcano","elevationM":455,"lastEruptionYear":1847,"tectonicSetting":"Subduction zone / Crustal thickness unknown","lat":-9.1324,"lon":159.8119},{"id":256010,"name":"Tinakula","country":"Solomon Islands","type":"Stratovolcano","elevationM":796,"lastEruptionYear":2024,"tectonicSetting":"Subduction zone / Crustal thickness unknown","lat":-10.386,"lon":165.804},{"id":257001,"name":"Motlav","country":"Vanuatu","type":"Stratovolcano","elevationM":411,"lastEruptionYear":null,"tectonicSetting":"Subduction zone / Intermediate crust (15-25 km)","lat":-13.67,"lon":167.67},{"id":257010,"name":"Suretamatai","country":"Vanuatu","type":"Complex","elevationM":921,"lastEruptionYear":1966,"tectonicSetting":"Subduction zone / Intermediate crust (15-25 km)","lat":-13.8,"lon":167.47},{"id":257020,"name":"Gaua","country":"Vanuatu","type":"Stratovolcano","elevationM":729,"lastEruptionYear":2022,"tectonicSetting":"Subduction zone / Intermediate crust (15-25 km)","lat":-14.281,"lon":167.514},{"id":257030,"name":"Ambae","country":"Vanuatu","type":"Shield","elevationM":1496,"lastEruptionYear":2026,"tectonicSetting":"Subduction zone / Intermediate crust (15-25 km)","lat":-15.389,"lon":167.835},{"id":257040,"name":"Ambrym","country":"Vanuatu","type":"Shield(pyroclastic)","elevationM":1334,"lastEruptionYear":2024,"tectonicSetting":"Subduction zone / Intermediate crust (15-25 km)","lat":-16.25,"lon":168.12},{"id":257050,"name":"Lopevi","country":"Vanuatu","type":"Stratovolcano","elevationM":1413,"lastEruptionYear":2007,"tectonicSetting":"Subduction zone / Intermediate crust (15-25 km)","lat":-16.507,"lon":168.346},{"id":257060,"name":"East Epi","country":"Vanuatu","type":"Stratovolcano(es)","elevationM":833,"lastEruptionYear":2023,"tectonicSetting":"Subduction zone / Intermediate crust (15-25 km)","lat":-16.6797,"lon":168.3893},{"id":257070,"name":"Kuwae","country":"Vanuatu","type":"Caldera","elevationM":-2,"lastEruptionYear":1974,"tectonicSetting":"Subduction zone / Intermediate crust (15-25 km)","lat":-16.8304,"lon":168.5227},{"id":257081,"name":"Nguna-Emau","country":"Vanuatu","type":"Stratovolcano(es)","elevationM":589,"lastEruptionYear":null,"tectonicSetting":"Subduction zone / Intermediate crust (15-25 km)","lat":-17.4522,"lon":168.353},{"id":257090,"name":"Traitor's Head","country":"Vanuatu","type":"Stratovolcano","elevationM":817,"lastEruptionYear":1881,"tectonicSetting":"Subduction zone / Intermediate crust (15-25 km)","lat":-18.754,"lon":169.238},{"id":257100,"name":"Yasur","country":"Vanuatu","type":"Stratovolcano","elevationM":361,"lastEruptionYear":2026,"tectonicSetting":"Subduction zone / Intermediate crust (15-25 km)","lat":-19.532,"lon":169.447},{"id":258001,"name":"Gemini-Oscostar","country":"Vanuatu","type":"Stratovolcano","elevationM":-33,"lastEruptionYear":1996,"tectonicSetting":"Rift zone / Oceanic crust (< 15 km)","lat":-20.957,"lon":170.13},{"id":258010,"name":"Matthew Island","country":"France - claimed by Vanuatu","type":"Stratovolcano","elevationM":177,"lastEruptionYear":1956,"tectonicSetting":"Subduction zone / Crustal thickness unknown","lat":-22.33,"lon":171.32},{"id":258020,"name":"Hunter Island","country":"France - claimed by Vanuatu","type":"Stratovolcano","elevationM":297,"lastEruptionYear":1903,"tectonicSetting":"Subduction zone / Crustal thickness unknown","lat":-22.4,"lon":172.05},{"id":259010,"name":"Newer Volcanics Province","country":"Australia","type":"Volcanic field","elevationM":1011,"lastEruptionYear":-2900,"tectonicSetting":"Intraplate / Continental crust (> 25 km)","lat":-37.77,"lon":142.5},{"id":259804,"name":"McBride Volcanic Province","country":"Australia","type":"Volcanic field","elevationM":1020,"lastEruptionYear":-5050,"tectonicSetting":"Intraplate / Continental crust (> 25 km)","lat":-18.367,"lon":144.567},{"id":260010,"name":"Barren Island","country":"India","type":"Stratovolcano","elevationM":354,"lastEruptionYear":2026,"tectonicSetting":"Subduction zone / Continental crust (> 25 km)","lat":12.278,"lon":93.858},{"id":261030,"name":"Peuet Sague","country":"Indonesia","type":"Complex","elevationM":2785,"lastEruptionYear":2000,"tectonicSetting":"Subduction zone / Continental crust (> 25 km)","lat":4.903,"lon":96.289},{"id":261050,"name":"Telong, Bur ni","country":"Indonesia","type":"Stratovolcano","elevationM":2617,"lastEruptionYear":1937,"tectonicSetting":"Subduction zone / Continental crust (> 25 km)","lat":4.769,"lon":96.821},{"id":261070,"name":"Singkut","country":"Indonesia","type":"Caldera(s)","elevationM":2181,"lastEruptionYear":1881,"tectonicSetting":"Subduction zone / Continental crust (> 25 km)","lat":3.2379,"lon":98.5127},{"id":261080,"name":"Sinabung","country":"Indonesia","type":"Stratovolcano","elevationM":2460,"lastEruptionYear":2021,"tectonicSetting":"Subduction zone / Continental crust (> 25 km)","lat":3.17,"lon":98.392},{"id":261120,"name":"Sorikmarapi","country":"Indonesia","type":"Stratovolcano","elevationM":2145,"lastEruptionYear":1986,"tectonicSetting":"Subduction zone / Continental crust (> 25 km)","lat":0.6834,"lon":99.5409},{"id":261121,"name":"Malintang","country":"Indonesia","type":"Stratovolcano","elevationM":1988,"lastEruptionYear":null,"tectonicSetting":"Subduction zone / Continental crust (> 25 km)","lat":0.4756,"lon":99.6628},{"id":261130,"name":"Talakmau","country":"Indonesia","type":"Complex","elevationM":2911,"lastEruptionYear":null,"tectonicSetting":"Subduction zone / Continental crust (> 25 km)","lat":0.0787,"lon":99.984},{"id":261140,"name":"Marapi","country":"Indonesia","type":"Complex","elevationM":2885,"lastEruptionYear":2026,"tectonicSetting":"Subduction zone / Continental crust (> 25 km)","lat":-0.38,"lon":100.474},{"id":261150,"name":"Tandikat-Singgalang","country":"Indonesia","type":"Stratovolcano(es)","elevationM":2879,"lastEruptionYear":1924,"tectonicSetting":"Subduction zone / Continental crust (> 25 km)","lat":-0.4311,"lon":100.3192},{"id":261160,"name":"Talang","country":"Indonesia","type":"Stratovolcano","elevationM":2575,"lastEruptionYear":2007,"tectonicSetting":"Subduction zone / Continental crust (> 25 km)","lat":-0.979,"lon":100.681},{"id":261170,"name":"Kerinci","country":"Indonesia","type":"Stratovolcano","elevationM":3800,"lastEruptionYear":2024,"tectonicSetting":"Subduction zone / Continental crust (> 25 km)","lat":-1.697,"lon":101.264},{"id":261180,"name":"Sumbing","country":"Indonesia","type":"Stratovolcano","elevationM":2507,"lastEruptionYear":1921,"tectonicSetting":"Subduction zone / Continental crust (> 25 km)","lat":-2.414,"lon":101.728},{"id":261220,"name":"Kaba","country":"Indonesia","type":"Stratovolcano","elevationM":1962,"lastEruptionYear":2000,"tectonicSetting":"Subduction zone / Continental crust (> 25 km)","lat":-3.5156,"lon":102.6261},{"id":261230,"name":"Dempo","country":"Indonesia","type":"Stratovolcano(es)","elevationM":3142,"lastEruptionYear":2025,"tectonicSetting":"Subduction zone / Continental crust (> 25 km)","lat":-4.016,"lon":103.121},{"id":261231,"name":"Patah","country":"Indonesia","type":"Stratovolcano?","elevationM":2836,"lastEruptionYear":null,"tectonicSetting":"Subduction zone / Continental crust (> 25 km)","lat":-4.257,"lon":103.306},{"id":261251,"name":"Ranau","country":"Indonesia","type":"Caldera","elevationM":1854,"lastEruptionYear":null,"tectonicSetting":"Subduction zone / Continental crust (> 25 km)","lat":-4.871,"lon":103.925},{"id":261270,"name":"Suoh","country":"Indonesia","type":"Caldera(s)","elevationM":1000,"lastEruptionYear":2024,"tectonicSetting":"Subduction zone / Continental crust (> 25 km)","lat":-5.25,"lon":104.27},{"id":262000,"name":"Krakatau","country":"Indonesia","type":"Caldera","elevationM":285,"lastEruptionYear":2024,"tectonicSetting":"Subduction zone / Continental crust (> 25 km)","lat":-6.1009,"lon":105.4233},{"id":263010,"name":"Pulosari","country":"Indonesia","type":"Stratovolcano","elevationM":1324,"lastEruptionYear":null,"tectonicSetting":"Subduction zone / Continental crust (> 25 km)","lat":-6.343,"lon":105.978},{"id":263020,"name":"Karang","country":"Indonesia","type":"Stratovolcano","elevationM":1768,"lastEruptionYear":null,"tectonicSetting":"Subduction zone / Continental crust (> 25 km)","lat":-6.268,"lon":106.05},{"id":263040,"name":"Perbakti-Gagak","country":"Indonesia","type":"Stratovolcano(es)","elevationM":1726,"lastEruptionYear":1939,"tectonicSetting":"Subduction zone / Continental crust (> 25 km)","lat":-6.75,"lon":106.675},{"id":263050,"name":"Salak","country":"Indonesia","type":"Stratovolcano","elevationM":2218,"lastEruptionYear":1938,"tectonicSetting":"Subduction zone / Continental crust (> 25 km)","lat":-6.716,"lon":106.733},{"id":263060,"name":"Gede-Pangrango","country":"Indonesia","type":"Stratovolcano(es)","elevationM":3026,"lastEruptionYear":1957,"tectonicSetting":"Subduction zone / Continental crust (> 25 km)","lat":-6.786,"lon":106.983},{"id":263070,"name":"Patuha","country":"Indonesia","type":"Stratovolcano","elevationM":2422,"lastEruptionYear":null,"tectonicSetting":"Subduction zone / Continental crust (> 25 km)","lat":-7.162,"lon":107.4},{"id":263090,"name":"Tangkuban Parahu","country":"Indonesia","type":"Stratovolcano","elevationM":2084,"lastEruptionYear":2019,"tectonicSetting":"Subduction zone / Continental crust (> 25 km)","lat":-6.77,"lon":107.6},{"id":263100,"name":"Papandayan","country":"Indonesia","type":"Stratovolcano(es)","elevationM":2643,"lastEruptionYear":2002,"tectonicSetting":"Subduction zone / Continental crust (> 25 km)","lat":-7.3175,"lon":107.7306},{"id":263130,"name":"Guntur","country":"Indonesia","type":"Complex","elevationM":2251,"lastEruptionYear":1847,"tectonicSetting":"Subduction zone / Continental crust (> 25 km)","lat":-7.143,"lon":107.841},{"id":263131,"name":"Tampomas","country":"Indonesia","type":"Stratovolcano","elevationM":1690,"lastEruptionYear":null,"tectonicSetting":"Subduction zone / Continental crust (> 25 km)","lat":-6.7639,"lon":107.9612},{"id":263140,"name":"Galunggung","country":"Indonesia","type":"Stratovolcano","elevationM":2168,"lastEruptionYear":1984,"tectonicSetting":"Subduction zone / Continental crust (> 25 km)","lat":-7.25,"lon":108.058},{"id":263150,"name":"Talagabodas","country":"Indonesia","type":"Stratovolcano","elevationM":2201,"lastEruptionYear":null,"tectonicSetting":"Subduction zone / Continental crust (> 25 km)","lat":-7.208,"lon":108.07},{"id":263170,"name":"Ciremai","country":"Indonesia","type":"Stratovolcano","elevationM":3039,"lastEruptionYear":1951,"tectonicSetting":"Subduction zone / Continental crust (> 25 km)","lat":-6.895,"lon":108.408},{"id":263180,"name":"Slamet","country":"Indonesia","type":"Stratovolcano","elevationM":3428,"lastEruptionYear":2014,"tectonicSetting":"Subduction zone / Continental crust (> 25 km)","lat":-7.242,"lon":109.208},{"id":263200,"name":"Dieng Volcanic Complex","country":"Indonesia","type":"Complex","elevationM":2565,"lastEruptionYear":2025,"tectonicSetting":"Subduction zone / Continental crust (> 25 km)","lat":-7.2,"lon":109.879},{"id":263210,"name":"Sundoro","country":"Indonesia","type":"Stratovolcano","elevationM":3149,"lastEruptionYear":1971,"tectonicSetting":"Subduction zone / Continental crust (> 25 km)","lat":-7.3014,"lon":109.997},{"id":263220,"name":"Sumbing","country":"Indonesia","type":"Stratovolcano","elevationM":3370,"lastEruptionYear":1730,"tectonicSetting":"Subduction zone / Continental crust (> 25 km)","lat":-7.3819,"lon":110.0747},{"id":263240,"name":"Merbabu","country":"Indonesia","type":"Stratovolcano","elevationM":3118,"lastEruptionYear":1797,"tectonicSetting":"Subduction zone / Continental crust (> 25 km)","lat":-7.454,"lon":110.44},{"id":263250,"name":"Merapi","country":"Indonesia","type":"Stratovolcano","elevationM":2910,"lastEruptionYear":2026,"tectonicSetting":"Subduction zone / Continental crust (> 25 km)","lat":-7.54,"lon":110.446},{"id":263260,"name":"Lawu","country":"Indonesia","type":"Stratovolcano","elevationM":3265,"lastEruptionYear":null,"tectonicSetting":"Subduction zone / Continental crust (> 25 km)","lat":-7.625,"lon":111.192},{"id":263280,"name":"Kelud","country":"Indonesia","type":"Stratovolcano","elevationM":1730,"lastEruptionYear":2014,"tectonicSetting":"Subduction zone / Continental crust (> 25 km)","lat":-7.935,"lon":112.314},{"id":263281,"name":"Kawi-Butak","country":"Indonesia","type":"Stratovolcano(es)","elevationM":2651,"lastEruptionYear":null,"tectonicSetting":"Subduction zone / Continental crust (> 25 km)","lat":-7.92,"lon":112.45},{"id":263290,"name":"Arjuno-Welirang","country":"Indonesia","type":"Stratovolcano","elevationM":3343,"lastEruptionYear":1952,"tectonicSetting":"Subduction zone / Continental crust (> 25 km)","lat":-7.733,"lon":112.575},{"id":263291,"name":"Penanggungan","country":"Indonesia","type":"Stratovolcano","elevationM":1631,"lastEruptionYear":null,"tectonicSetting":"Subduction zone / Continental crust (> 25 km)","lat":-7.616,"lon":112.62},{"id":263300,"name":"Semeru","country":"Indonesia","type":"Stratovolcano","elevationM":3657,"lastEruptionYear":2026,"tectonicSetting":"Subduction zone / Continental crust (> 25 km)","lat":-8.108,"lon":112.922},{"id":263310,"name":"Tengger Caldera","country":"Indonesia","type":"Stratovolcano(es)","elevationM":2329,"lastEruptionYear":2023,"tectonicSetting":"Subduction zone / Continental crust (> 25 km)","lat":-7.942,"lon":112.95},{"id":263320,"name":"Lamongan","country":"Indonesia","type":"Stratovolcano","elevationM":1641,"lastEruptionYear":1898,"tectonicSetting":"Subduction zone / Continental crust (> 25 km)","lat":-7.981,"lon":113.341},{"id":263330,"name":"Iyang-Argapura","country":"Indonesia","type":"Complex","elevationM":3088,"lastEruptionYear":null,"tectonicSetting":"Subduction zone / Continental crust (> 25 km)","lat":-7.97,"lon":113.57},{"id":263340,"name":"Raung","country":"Indonesia","type":"Stratovolcano","elevationM":3260,"lastEruptionYear":2025,"tectonicSetting":"Subduction zone / Continental crust (> 25 km)","lat":-8.119,"lon":114.056},{"id":263350,"name":"Ijen","country":"Indonesia","type":"Stratovolcano(es)","elevationM":2769,"lastEruptionYear":1999,"tectonicSetting":"Subduction zone / Continental crust (> 25 km)","lat":-8.058,"lon":114.242},{"id":263351,"name":"Baluran","country":"Indonesia","type":"Stratovolcano","elevationM":1247,"lastEruptionYear":null,"tectonicSetting":"Subduction zone / Continental crust (> 25 km)","lat":-7.85,"lon":114.37},{"id":264001,"name":"Buyan-Bratan","country":"Indonesia","type":"Caldera","elevationM":2244,"lastEruptionYear":null,"tectonicSetting":"Subduction zone / Continental crust (> 25 km)","lat":-8.283,"lon":115.133},{"id":264010,"name":"Batur","country":"Indonesia","type":"Caldera","elevationM":1711,"lastEruptionYear":2000,"tectonicSetting":"Subduction zone / Continental crust (> 25 km)","lat":-8.2403,"lon":115.3775},{"id":264020,"name":"Agung","country":"Indonesia","type":"Stratovolcano","elevationM":2997,"lastEruptionYear":2022,"tectonicSetting":"Subduction zone / Continental crust (> 25 km)","lat":-8.343,"lon":115.508},{"id":264030,"name":"Rinjani","country":"Indonesia","type":"Stratovolcano","elevationM":3726,"lastEruptionYear":2016,"tectonicSetting":"Subduction zone / Continental crust (> 25 km)","lat":-8.42,"lon":116.47},{"id":264040,"name":"Tambora","country":"Indonesia","type":"Stratovolcano","elevationM":2850,"lastEruptionYear":1967,"tectonicSetting":"Subduction zone / Continental crust (> 25 km)","lat":-8.25,"lon":118},{"id":264050,"name":"Sangeang Api","country":"Indonesia","type":"Complex","elevationM":1912,"lastEruptionYear":2022,"tectonicSetting":"Subduction zone / Continental crust (> 25 km)","lat":-8.2,"lon":119.07},{"id":264060,"name":"Sano, Wai","country":"Indonesia","type":"Caldera","elevationM":1319,"lastEruptionYear":null,"tectonicSetting":"Subduction zone / Continental crust (> 25 km)","lat":-8.7345,"lon":120.0074},{"id":264071,"name":"Ranakah","country":"Indonesia","type":"Lava dome(s)","elevationM":2288,"lastEruptionYear":1991,"tectonicSetting":"Subduction zone / Continental crust (> 25 km)","lat":-8.637,"lon":120.5302},{"id":264080,"name":"Inierie","country":"Indonesia","type":"Stratovolcano","elevationM":2245,"lastEruptionYear":-8050,"tectonicSetting":"Subduction zone / Crustal thickness unknown","lat":-8.875,"lon":120.95},{"id":264090,"name":"Inielika","country":"Indonesia","type":"Complex","elevationM":1559,"lastEruptionYear":2001,"tectonicSetting":"Subduction zone / Crustal thickness unknown","lat":-8.73,"lon":120.98},{"id":264100,"name":"Ebulobo","country":"Indonesia","type":"Stratovolcano","elevationM":2096,"lastEruptionYear":1969,"tectonicSetting":"Subduction zone / Crustal thickness unknown","lat":-8.817,"lon":121.191},{"id":264110,"name":"Iya","country":"Indonesia","type":"Stratovolcano","elevationM":618,"lastEruptionYear":1969,"tectonicSetting":"Subduction zone / Crustal thickness unknown","lat":-8.891,"lon":121.641},{"id":264140,"name":"Kelimutu","country":"Indonesia","type":"Complex","elevationM":1639,"lastEruptionYear":1968,"tectonicSetting":"Subduction zone / Crustal thickness unknown","lat":-8.77,"lon":121.82},{"id":264150,"name":"Paluweh","country":"Indonesia","type":"Stratovolcano","elevationM":875,"lastEruptionYear":2013,"tectonicSetting":"Subduction zone / Crustal thickness unknown","lat":-8.32,"lon":121.708},{"id":264160,"name":"Egon","country":"Indonesia","type":"Stratovolcano","elevationM":1661,"lastEruptionYear":2008,"tectonicSetting":"Subduction zone / Crustal thickness unknown","lat":-8.676,"lon":122.455},{"id":264180,"name":"Lewotobi","country":"Indonesia","type":"Stratovolcano(es)","elevationM":1703,"lastEruptionYear":2026,"tectonicSetting":"Subduction zone / Crustal thickness unknown","lat":-8.542,"lon":122.775},{"id":264220,"name":"Iliboleng","country":"Indonesia","type":"Stratovolcano","elevationM":1659,"lastEruptionYear":1993,"tectonicSetting":"Subduction zone / Crustal thickness unknown","lat":-8.342,"lon":123.258},{"id":264230,"name":"Lewotolok","country":"Indonesia","type":"Stratovolcano","elevationM":1431,"lastEruptionYear":2026,"tectonicSetting":"Subduction zone / Crustal thickness unknown","lat":-8.274,"lon":123.508},{"id":264240,"name":"Ililabalekan","country":"Indonesia","type":"Stratovolcano","elevationM":1018,"lastEruptionYear":null,"tectonicSetting":"Subduction zone / Crustal thickness unknown","lat":-8.55,"lon":123.38},{"id":264250,"name":"Iliwerung","country":"Indonesia","type":"Complex","elevationM":583,"lastEruptionYear":2021,"tectonicSetting":"Subduction zone / Crustal thickness unknown","lat":-8.532,"lon":123.573},{"id":264260,"name":"Tara, Batu","country":"Indonesia","type":"Stratovolcano","elevationM":633,"lastEruptionYear":2015,"tectonicSetting":"Subduction zone / Oceanic crust (< 15 km)","lat":-7.791,"lon":123.585},{"id":264270,"name":"Sirung","country":"Indonesia","type":"Complex","elevationM":1347,"lastEruptionYear":2021,"tectonicSetting":"Subduction zone / Crustal thickness unknown","lat":-8.4972,"lon":124.1306},{"id":265040,"name":"Wurlali","country":"Indonesia","type":"Stratovolcano","elevationM":868,"lastEruptionYear":1892,"tectonicSetting":"Subduction zone / Oceanic crust (< 15 km)","lat":-7.125,"lon":128.675},{"id":265050,"name":"Teon","country":"Indonesia","type":"Stratovolcano","elevationM":728,"lastEruptionYear":1904,"tectonicSetting":"Subduction zone / Oceanic crust (< 15 km)","lat":-6.976,"lon":129.144},{"id":265060,"name":"Nila","country":"Indonesia","type":"Stratovolcano","elevationM":781,"lastEruptionYear":1968,"tectonicSetting":"Subduction zone / Oceanic crust (< 15 km)","lat":-6.73,"lon":129.5},{"id":265070,"name":"Serua","country":"Indonesia","type":"Stratovolcano","elevationM":608,"lastEruptionYear":1921,"tectonicSetting":"Subduction zone / Oceanic crust (< 15 km)","lat":-6.312,"lon":130.017},{"id":265080,"name":"Manuk","country":"Indonesia","type":"Stratovolcano","elevationM":257,"lastEruptionYear":null,"tectonicSetting":"Subduction zone / Oceanic crust (< 15 km)","lat":-5.543,"lon":130.303},{"id":265090,"name":"Banda Api","country":"Indonesia","type":"Caldera","elevationM":596,"lastEruptionYear":1988,"tectonicSetting":"Subduction zone / Oceanic crust (< 15 km)","lat":-4.523,"lon":129.881},{"id":266010,"name":"Colo","country":"Indonesia","type":"Stratovolcano","elevationM":404,"lastEruptionYear":1983,"tectonicSetting":"Subduction zone / Continental crust (> 25 km)","lat":-0.162,"lon":121.601},{"id":266020,"name":"Ambang","country":"Indonesia","type":"Complex","elevationM":1795,"lastEruptionYear":2005,"tectonicSetting":"Subduction zone / Continental crust (> 25 km)","lat":0.75,"lon":124.42},{"id":266030,"name":"Soputan","country":"Indonesia","type":"Stratovolcano","elevationM":1785,"lastEruptionYear":2020,"tectonicSetting":"Subduction zone / Continental crust (> 25 km)","lat":1.112,"lon":124.737},{"id":266100,"name":"Lokon-Empung","country":"Indonesia","type":"Stratovolcano(es)","elevationM":1580,"lastEruptionYear":2015,"tectonicSetting":"Subduction zone / Continental crust (> 25 km)","lat":1.3644,"lon":124.7992},{"id":266110,"name":"Mahawu","country":"Indonesia","type":"Stratovolcano","elevationM":1299,"lastEruptionYear":1977,"tectonicSetting":"Subduction zone / Continental crust (> 25 km)","lat":1.352,"lon":124.865},{"id":266120,"name":"Klabat","country":"Indonesia","type":"Stratovolcano","elevationM":1968,"lastEruptionYear":null,"tectonicSetting":"Subduction zone / Continental crust (> 25 km)","lat":1.454,"lon":125.031},{"id":266130,"name":"Tangkoko-Duasudara","country":"Indonesia","type":"Stratovolcano","elevationM":1334,"lastEruptionYear":1880,"tectonicSetting":"Subduction zone / Continental crust (> 25 km)","lat":1.518,"lon":125.185},{"id":267010,"name":"Ruang","country":"Indonesia","type":"Stratovolcano","elevationM":703,"lastEruptionYear":2024,"tectonicSetting":"Subduction zone / Oceanic crust (< 15 km)","lat":2.3058,"lon":125.3671},{"id":267020,"name":"Karangetang","country":"Indonesia","type":"Stratovolcano","elevationM":1797,"lastEruptionYear":2023,"tectonicSetting":"Subduction zone / Oceanic crust (< 15 km)","lat":2.781,"lon":125.407},{"id":267030,"name":"Banua Wuhu","country":"Indonesia","type":"Complex","elevationM":-5,"lastEruptionYear":1919,"tectonicSetting":"Subduction zone / Oceanic crust (< 15 km)","lat":3.1463,"lon":125.4422},{"id":267040,"name":"Awu","country":"Indonesia","type":"Stratovolcano","elevationM":1318,"lastEruptionYear":2004,"tectonicSetting":"Subduction zone / Oceanic crust (< 15 km)","lat":3.689,"lon":125.447},{"id":268001,"name":"Tarakan","country":"Indonesia","type":"Pyroclastic cone(s)","elevationM":317,"lastEruptionYear":null,"tectonicSetting":"Subduction zone / Oceanic crust (< 15 km)","lat":1.832,"lon":127.825},{"id":268010,"name":"Dukono","country":"Indonesia","type":"Complex","elevationM":1273,"lastEruptionYear":2026,"tectonicSetting":"Subduction zone / Oceanic crust (< 15 km)","lat":1.6992,"lon":127.8783},{"id":268020,"name":"Tobaru","country":"Indonesia","type":"Stratovolcano","elevationM":1035,"lastEruptionYear":null,"tectonicSetting":"Subduction zone / Oceanic crust (< 15 km)","lat":1.63,"lon":127.67},{"id":268030,"name":"Ibu","country":"Indonesia","type":"Stratovolcano","elevationM":1357,"lastEruptionYear":2026,"tectonicSetting":"Subduction zone / Oceanic crust (< 15 km)","lat":1.4941,"lon":127.6324},{"id":268040,"name":"Gamkonora","country":"Indonesia","type":"Stratovolcano","elevationM":1635,"lastEruptionYear":2007,"tectonicSetting":"Subduction zone / Oceanic crust (< 15 km)","lat":1.38,"lon":127.53},{"id":268050,"name":"Todoko-Ranu","country":"Indonesia","type":"Caldera(s)","elevationM":979,"lastEruptionYear":null,"tectonicSetting":"Subduction zone / Oceanic crust (< 15 km)","lat":1.2389,"lon":127.4556},{"id":268051,"name":"Jailolo","country":"Indonesia","type":"Stratovolcano","elevationM":993,"lastEruptionYear":null,"tectonicSetting":"Subduction zone / Oceanic crust (< 15 km)","lat":1.08,"lon":127.439},{"id":268052,"name":"Hiri","country":"Indonesia","type":"Stratovolcano","elevationM":687,"lastEruptionYear":null,"tectonicSetting":"Subduction zone / Oceanic crust (< 15 km)","lat":0.8971,"lon":127.317},{"id":268060,"name":"Gamalama","country":"Indonesia","type":"Stratovolcano(es)","elevationM":1714,"lastEruptionYear":2018,"tectonicSetting":"Subduction zone / Oceanic crust (< 15 km)","lat":0.81,"lon":127.3322},{"id":268061,"name":"Kie Matubu","country":"Indonesia","type":"Stratovolcano","elevationM":1713,"lastEruptionYear":1210,"tectonicSetting":"Subduction zone / Oceanic crust (< 15 km)","lat":0.6623,"lon":127.4029},{"id":268062,"name":"Mare","country":"Indonesia","type":"Stratovolcano","elevationM":308,"lastEruptionYear":null,"tectonicSetting":"Subduction zone / Oceanic crust (< 15 km)","lat":0.57,"lon":127.4},{"id":268063,"name":"Moti","country":"Indonesia","type":"Stratovolcano","elevationM":927,"lastEruptionYear":null,"tectonicSetting":"Subduction zone / Oceanic crust (< 15 km)","lat":0.454,"lon":127.411},{"id":268070,"name":"Kie Besi","country":"Indonesia","type":"Stratovolcano","elevationM":1357,"lastEruptionYear":1988,"tectonicSetting":"Subduction zone / Oceanic crust (< 15 km)","lat":0.32,"lon":127.4},{"id":271011,"name":"Melebingoy","country":"Philippines","type":"Stratovolcano","elevationM":1824,"lastEruptionYear":1641,"tectonicSetting":"Subduction zone / Continental crust (> 25 km)","lat":6.113,"lon":124.892},{"id":271020,"name":"Matutum","country":"Philippines","type":"Stratovolcano","elevationM":2262,"lastEruptionYear":1290,"tectonicSetting":"Subduction zone / Continental crust (> 25 km)","lat":6.3604,"lon":125.0765},{"id":271031,"name":"Leonard Range","country":"Philippines","type":"Stratovolcano","elevationM":1080,"lastEruptionYear":80,"tectonicSetting":"Subduction zone / Continental crust (> 25 km)","lat":7.382,"lon":126.047},{"id":271040,"name":"Makaturing","country":"Philippines","type":"Stratovolcano","elevationM":1818,"lastEruptionYear":1882,"tectonicSetting":"Subduction zone / Continental crust (> 25 km)","lat":7.644,"lon":124.317},{"id":271060,"name":"Ragang","country":"Philippines","type":"Stratovolcano","elevationM":2790,"lastEruptionYear":1916,"tectonicSetting":"Subduction zone / Continental crust (> 25 km)","lat":7.691,"lon":124.507},{"id":271070,"name":"Musuan","country":"Philippines","type":"Lava dome","elevationM":610,"lastEruptionYear":null,"tectonicSetting":"Subduction zone / Continental crust (> 25 km)","lat":7.8765,"lon":125.0697},{"id":271080,"name":"Camiguin","country":"Philippines","type":"Stratovolcano(es)","elevationM":1552,"lastEruptionYear":1953,"tectonicSetting":"Subduction zone / Continental crust (> 25 km)","lat":9.203,"lon":124.673},{"id":272020,"name":"Kanlaon","country":"Philippines","type":"Stratovolcano","elevationM":2422,"lastEruptionYear":2026,"tectonicSetting":"Subduction zone / Continental crust (> 25 km)","lat":10.4096,"lon":123.13},{"id":272050,"name":"Cabal\u00edan","country":"Philippines","type":"Stratovolcano","elevationM":912,"lastEruptionYear":1820,"tectonicSetting":"Subduction zone / Continental crust (> 25 km)","lat":10.285,"lon":125.218},{"id":272080,"name":"Biliran","country":"Philippines","type":"Compound","elevationM":1301,"lastEruptionYear":1939,"tectonicSetting":"Subduction zone / Continental crust (> 25 km)","lat":11.523,"lon":124.535},{"id":273010,"name":"Bulusan","country":"Philippines","type":"Stratovolcano(es)","elevationM":1535,"lastEruptionYear":2025,"tectonicSetting":"Subduction zone / Continental crust (> 25 km)","lat":12.769,"lon":124.056},{"id":273030,"name":"Mayon","country":"Philippines","type":"Stratovolcano","elevationM":2462,"lastEruptionYear":2026,"tectonicSetting":"Subduction zone / Continental crust (> 25 km)","lat":13.257,"lon":123.685},{"id":273041,"name":"Iriga","country":"Philippines","type":"Stratovolcano","elevationM":1138,"lastEruptionYear":null,"tectonicSetting":"Subduction zone / Continental crust (> 25 km)","lat":13.458,"lon":123.451},{"id":273042,"name":"Isarog","country":"Philippines","type":"Stratovolcano","elevationM":1966,"lastEruptionYear":-3500,"tectonicSetting":"Subduction zone / Continental crust (> 25 km)","lat":13.658,"lon":123.38},{"id":273050,"name":"Banahaw","country":"Philippines","type":"Complex","elevationM":2158,"lastEruptionYear":null,"tectonicSetting":"Subduction zone / Continental crust (> 25 km)","lat":14.07,"lon":121.48},{"id":273060,"name":"San Pablo Volcanic Field","country":"Philippines","type":"Volcanic field","elevationM":1090,"lastEruptionYear":1350,"tectonicSetting":"Subduction zone / Continental crust (> 25 km)","lat":14.12,"lon":121.3},{"id":273070,"name":"Taal","country":"Philippines","type":"Caldera","elevationM":311,"lastEruptionYear":2026,"tectonicSetting":"Subduction zone / Continental crust (> 25 km)","lat":14.0106,"lon":120.9975},{"id":273083,"name":"Pinatubo","country":"Philippines","type":"Stratovolcano","elevationM":1486,"lastEruptionYear":2021,"tectonicSetting":"Subduction zone / Continental crust (> 25 km)","lat":15.13,"lon":120.35},{"id":273090,"name":"Cagua","country":"Philippines","type":"Stratovolcano","elevationM":1133,"lastEruptionYear":1860,"tectonicSetting":"Subduction zone / Continental crust (> 25 km)","lat":18.222,"lon":122.123},{"id":274010,"name":"Camiguin de Babuyanes","country":"Philippines","type":"Stratovolcano","elevationM":712,"lastEruptionYear":1857,"tectonicSetting":"Subduction zone / Crustal thickness unknown","lat":18.83,"lon":121.86},{"id":274020,"name":"Didicas","country":"Philippines","type":"Compound","elevationM":228,"lastEruptionYear":1978,"tectonicSetting":"Subduction zone / Crustal thickness unknown","lat":19.077,"lon":122.202},{"id":274030,"name":"Babuyan Claro","country":"Philippines","type":"Stratovolcano(es)","elevationM":1064,"lastEruptionYear":1924,"tectonicSetting":"Subduction zone / Crustal thickness unknown","lat":19.524,"lon":121.95},{"id":274060,"name":"Iraya","country":"Philippines","type":"Stratovolcano","elevationM":1009,"lastEruptionYear":1454,"tectonicSetting":"Subduction zone / Crustal thickness unknown","lat":20.469,"lon":122.01},{"id":275001,"name":"Hainan Volcanic Field","country":"China","type":"Volcanic field","elevationM":196,"lastEruptionYear":1933,"tectonicSetting":"Intraplate / Continental crust (> 25 km)","lat":19.905,"lon":110.229},{"id":275020,"name":"Ly Son Group","country":"Vietnam","type":"Volcanic field","elevationM":157,"lastEruptionYear":null,"tectonicSetting":"Intraplate / Continental crust (> 25 km)","lat":15.38,"lon":109.12},{"id":275060,"name":"Cendres, Ile des","country":"Vietnam","type":"Volcanic field","elevationM":-20,"lastEruptionYear":1923,"tectonicSetting":"Intraplate / Continental crust (> 25 km)","lat":10.158,"lon":109.014},{"id":275080,"name":"Popa","country":"Burma (Myanmar)","type":"Stratovolcano","elevationM":1518,"lastEruptionYear":-6050,"tectonicSetting":"Intraplate / Continental crust (> 25 km)","lat":20.92,"lon":95.25},{"id":275110,"name":"Tengchong","country":"China","type":"Volcanic field","elevationM":2865,"lastEruptionYear":-5750,"tectonicSetting":"Intraplate / Continental crust (> 25 km)","lat":25.23,"lon":98.5},{"id":281031,"name":"Kueishantao","country":"Taiwan","type":"Stratovolcano","elevationM":361,"lastEruptionYear":1853,"tectonicSetting":"Subduction zone / Continental crust (> 25 km)","lat":24.841,"lon":121.953},{"id":281032,"name":"Tatun Volcanic Group","country":"Taiwan","type":"Lava dome(s)","elevationM":1120,"lastEruptionYear":648,"tectonicSetting":"Subduction zone / Continental crust (> 25 km)","lat":25.178,"lon":121.553},{"id":282010,"name":"Submarine Volcano NNE of Iriomotejima","country":"Japan","type":"Stratovolcano","elevationM":-200,"lastEruptionYear":1924,"tectonicSetting":"Subduction zone / Oceanic crust (< 15 km)","lat":24.57,"lon":123.93},{"id":282020,"name":"Io-Torishima","country":"Japan","type":"Complex","elevationM":212,"lastEruptionYear":1968,"tectonicSetting":"Subduction zone / Oceanic crust (< 15 km)","lat":27.881,"lon":128.223},{"id":282021,"name":"Yokoatejima","country":"Japan","type":"Stratovolcano(es)","elevationM":495,"lastEruptionYear":1835,"tectonicSetting":"Subduction zone / Oceanic crust (< 15 km)","lat":28.7994,"lon":128.9958},{"id":282022,"name":"Akusekijima","country":"Japan","type":"Stratovolcano(es)","elevationM":555,"lastEruptionYear":null,"tectonicSetting":"Subduction zone / Oceanic crust (< 15 km)","lat":29.465,"lon":129.594},{"id":282030,"name":"Suwanosejima","country":"Japan","type":"Stratovolcano(es)","elevationM":796,"lastEruptionYear":2026,"tectonicSetting":"Subduction zone / Oceanic crust (< 15 km)","lat":29.638,"lon":129.714},{"id":282040,"name":"Nakanoshima","country":"Japan","type":"Stratovolcano(es)","elevationM":979,"lastEruptionYear":1914,"tectonicSetting":"Subduction zone / Oceanic crust (< 15 km)","lat":29.859,"lon":129.857},{"id":282043,"name":"Kuchinoshima","country":"Japan","type":"Stratovolcano(es)","elevationM":628,"lastEruptionYear":1190,"tectonicSetting":"Subduction zone / Oceanic crust (< 15 km)","lat":29.968,"lon":129.926},{"id":282050,"name":"Kuchinoerabujima","country":"Japan","type":"Stratovolcano(es)","elevationM":657,"lastEruptionYear":2020,"tectonicSetting":"Subduction zone / Oceanic crust (< 15 km)","lat":30.443,"lon":130.217},{"id":282060,"name":"Kikai","country":"Japan","type":"Caldera","elevationM":704,"lastEruptionYear":2025,"tectonicSetting":"Subduction zone / Oceanic crust (< 15 km)","lat":30.793,"lon":130.305},{"id":282070,"name":"Ata","country":"Japan","type":"Caldera(s)","elevationM":924,"lastEruptionYear":885,"tectonicSetting":"Subduction zone / Continental crust (> 25 km)","lat":31.18,"lon":130.5283},{"id":282080,"name":"Aira","country":"Japan","type":"Caldera","elevationM":1117,"lastEruptionYear":2026,"tectonicSetting":"Subduction zone / Continental crust (> 25 km)","lat":31.5772,"lon":130.6589},{"id":282081,"name":"Yonemaru-Sumiyoshiike","country":"Japan","type":"Maar(s)","elevationM":40,"lastEruptionYear":-6200,"tectonicSetting":"Subduction zone / Continental crust (> 25 km)","lat":31.771,"lon":130.592},{"id":282090,"name":"Kirishimayama","country":"Japan","type":"Shield","elevationM":1700,"lastEruptionYear":2025,"tectonicSetting":"Subduction zone / Continental crust (> 25 km)","lat":31.934,"lon":130.862},{"id":282091,"name":"Fukue","country":"Japan","type":"Volcanic field","elevationM":315,"lastEruptionYear":-400,"tectonicSetting":"Subduction zone / Continental crust (> 25 km)","lat":32.657,"lon":128.849},{"id":282100,"name":"Unzendake","country":"Japan","type":"Complex","elevationM":1483,"lastEruptionYear":1996,"tectonicSetting":"Subduction zone / Continental crust (> 25 km)","lat":32.761,"lon":130.299},{"id":282110,"name":"Asosan","country":"Japan","type":"Caldera","elevationM":1592,"lastEruptionYear":2021,"tectonicSetting":"Subduction zone / Continental crust (> 25 km)","lat":32.8849,"lon":131.085},{"id":282120,"name":"Kujusan","country":"Japan","type":"Stratovolcano(es)","elevationM":1791,"lastEruptionYear":1996,"tectonicSetting":"Subduction zone / Continental crust (> 25 km)","lat":33.086,"lon":131.249},{"id":282130,"name":"Yufu-Tsurumi","country":"Japan","type":"Lava dome(s)","elevationM":null,"lastEruptionYear":867,"tectonicSetting":"Subduction zone / Continental crust (> 25 km)","lat":33.282,"lon":131.39},{"id":283001,"name":"Abu","country":"Japan","type":"Volcanic field","elevationM":641,"lastEruptionYear":-6850,"tectonicSetting":"Subduction zone / Continental crust (> 25 km)","lat":34.4833,"lon":131.5167},{"id":283002,"name":"Sanbesan","country":"Japan","type":"Stratovolcano","elevationM":1126,"lastEruptionYear":650,"tectonicSetting":"Subduction zone / Continental crust (> 25 km)","lat":35.141,"lon":132.622},{"id":283010,"name":"Izu-Tobu","country":"Japan","type":"Pyroclastic cone(s)","elevationM":580,"lastEruptionYear":1989,"tectonicSetting":"Subduction zone / Continental crust (> 25 km)","lat":34.903,"lon":139.095},{"id":283020,"name":"Hakoneyama","country":"Japan","type":"Complex","elevationM":1438,"lastEruptionYear":2015,"tectonicSetting":"Subduction zone / Continental crust (> 25 km)","lat":35.233,"lon":139.021},{"id":283030,"name":"Fujisan","country":"Japan","type":"Stratovolcano","elevationM":3776,"lastEruptionYear":1708,"tectonicSetting":"Subduction zone / Continental crust (> 25 km)","lat":35.361,"lon":138.728},{"id":283031,"name":"Yokodake","country":"Japan","type":"Stratovolcano(es)","elevationM":2480,"lastEruptionYear":1200,"tectonicSetting":"Subduction zone / Continental crust (> 25 km)","lat":36.0875,"lon":138.32},{"id":283040,"name":"Ontakesan","country":"Japan","type":"Complex","elevationM":3067,"lastEruptionYear":2014,"tectonicSetting":"Subduction zone / Continental crust (> 25 km)","lat":35.8931,"lon":137.4806},{"id":283050,"name":"Hakusan","country":"Japan","type":"Stratovolcano","elevationM":2702,"lastEruptionYear":1659,"tectonicSetting":"Subduction zone / Continental crust (> 25 km)","lat":36.155,"lon":136.771},{"id":283060,"name":"Norikuradake","country":"Japan","type":"Stratovolcano(es)","elevationM":3026,"lastEruptionYear":-50,"tectonicSetting":"Subduction zone / Continental crust (> 25 km)","lat":36.106,"lon":137.554},{"id":283069,"name":"Akandanayama","country":"Japan","type":"Stratovolcano","elevationM":2109,"lastEruptionYear":null,"tectonicSetting":null,"lat":36.2,"lon":137.573},{"id":283070,"name":"Yakedake","country":"Japan","type":"Stratovolcano(es)","elevationM":2455,"lastEruptionYear":1995,"tectonicSetting":"Subduction zone / Continental crust (> 25 km)","lat":36.227,"lon":137.587},{"id":283080,"name":"Midagahara","country":"Japan","type":"Stratovolcano","elevationM":2621,"lastEruptionYear":1839,"tectonicSetting":"Subduction zone / Continental crust (> 25 km)","lat":36.571,"lon":137.59},{"id":283090,"name":"Niigata-Yakeyama","country":"Japan","type":"Lava dome","elevationM":2400,"lastEruptionYear":1998,"tectonicSetting":"Subduction zone / Continental crust (> 25 km)","lat":36.921,"lon":138.036},{"id":283100,"name":"Myokosan","country":"Japan","type":"Stratovolcano","elevationM":2454,"lastEruptionYear":-750,"tectonicSetting":"Subduction zone / Continental crust (> 25 km)","lat":36.891,"lon":138.114},{"id":283110,"name":"Asamayama","country":"Japan","type":"Complex","elevationM":2568,"lastEruptionYear":2019,"tectonicSetting":"Subduction zone / Continental crust (> 25 km)","lat":36.406,"lon":138.523},{"id":283120,"name":"Kusatsu-Shiranesan","country":"Japan","type":"Stratovolcano(es)","elevationM":2165,"lastEruptionYear":2018,"tectonicSetting":"Subduction zone / Continental crust (> 25 km)","lat":36.618,"lon":138.528},{"id":283121,"name":"Shiga","country":"Japan","type":"Shield(s)","elevationM":2041,"lastEruptionYear":null,"tectonicSetting":"Subduction zone / Continental crust (> 25 km)","lat":36.688,"lon":138.519},{"id":283122,"name":"Harunasan","country":"Japan","type":"Stratovolcano","elevationM":1449,"lastEruptionYear":550,"tectonicSetting":"Subduction zone / Continental crust (> 25 km)","lat":36.4775,"lon":138.8508},{"id":283130,"name":"Akagisan","country":"Japan","type":"Stratovolcano","elevationM":1828,"lastEruptionYear":null,"tectonicSetting":"Subduction zone / Continental crust (> 25 km)","lat":36.56,"lon":139.193},{"id":283131,"name":"Hiuchigatake","country":"Japan","type":"Stratovolcano","elevationM":2356,"lastEruptionYear":1544,"tectonicSetting":"Subduction zone / Continental crust (> 25 km)","lat":36.955,"lon":139.285},{"id":283140,"name":"Nikko-Shiranesan","country":"Japan","type":"Shield","elevationM":2578,"lastEruptionYear":1952,"tectonicSetting":"Subduction zone / Continental crust (> 25 km)","lat":36.799,"lon":139.376},{"id":283141,"name":"Nantaisan","country":"Japan","type":"Stratovolcano","elevationM":2486,"lastEruptionYear":-9540,"tectonicSetting":"Subduction zone / Continental crust (> 25 km)","lat":36.765,"lon":139.4906},{"id":283142,"name":"Omanago Group","country":"Japan","type":"Lava dome(s)","elevationM":2341,"lastEruptionYear":-3050,"tectonicSetting":"Subduction zone / Continental crust (> 25 km)","lat":36.8067,"lon":139.4756},{"id":283143,"name":"Takaharayama","country":"Japan","type":"Stratovolcano","elevationM":1795,"lastEruptionYear":-4570,"tectonicSetting":"Subduction zone / Continental crust (> 25 km)","lat":36.9,"lon":139.777},{"id":283150,"name":"Nasudake","country":"Japan","type":"Stratovolcano(es)","elevationM":1915,"lastEruptionYear":1963,"tectonicSetting":"Subduction zone / Continental crust (> 25 km)","lat":37.1247,"lon":139.9631},{"id":283151,"name":"Numazawa","country":"Japan","type":"Shield","elevationM":835,"lastEruptionYear":-3400,"tectonicSetting":"Subduction zone / Continental crust (> 25 km)","lat":37.444,"lon":139.566},{"id":283160,"name":"Bandaisan","country":"Japan","type":"Stratovolcano","elevationM":1816,"lastEruptionYear":1888,"tectonicSetting":"Subduction zone / Continental crust (> 25 km)","lat":37.601,"lon":140.072},{"id":283170,"name":"Adatarayama","country":"Japan","type":"Stratovolcano(es)","elevationM":1728,"lastEruptionYear":1996,"tectonicSetting":"Subduction zone / Continental crust (> 25 km)","lat":37.647,"lon":140.281},{"id":283180,"name":"Azumayama","country":"Japan","type":"Stratovolcano(es)","elevationM":1949,"lastEruptionYear":1977,"tectonicSetting":"Subduction zone / Continental crust (> 25 km)","lat":37.735,"lon":140.244},{"id":283190,"name":"Zaozan [Zaosan]","country":"Japan","type":"Complex","elevationM":1841,"lastEruptionYear":1940,"tectonicSetting":"Subduction zone / Continental crust (> 25 km)","lat":38.1439,"lon":140.4397},{"id":283191,"name":"Hijiori","country":"Japan","type":"Caldera","elevationM":552,"lastEruptionYear":null,"tectonicSetting":"Subduction zone / Continental crust (> 25 km)","lat":38.5992,"lon":140.1617},{"id":283200,"name":"Naruko","country":"Japan","type":"Caldera","elevationM":470,"lastEruptionYear":837,"tectonicSetting":"Subduction zone / Continental crust (> 25 km)","lat":38.729,"lon":140.734},{"id":283210,"name":"Kurikomayama","country":"Japan","type":"Stratovolcano","elevationM":null,"lastEruptionYear":1950,"tectonicSetting":"Subduction zone / Continental crust (> 25 km)","lat":38.961,"lon":140.788},{"id":283220,"name":"Chokaisan","country":"Japan","type":"Stratovolcano(es)","elevationM":2236,"lastEruptionYear":1974,"tectonicSetting":"Subduction zone / Continental crust (> 25 km)","lat":39.0994,"lon":140.0489},{"id":283230,"name":"Akita-Komagatake","country":"Japan","type":"Stratovolcano(es)","elevationM":1637,"lastEruptionYear":1971,"tectonicSetting":"Subduction zone / Continental crust (> 25 km)","lat":39.761,"lon":140.799},{"id":283240,"name":"Iwatesan","country":"Japan","type":"Complex","elevationM":2038,"lastEruptionYear":1919,"tectonicSetting":"Subduction zone / Continental crust (> 25 km)","lat":39.853,"lon":141.001},{"id":283250,"name":"Hachimantai","country":"Japan","type":"Stratovolcano","elevationM":1613,"lastEruptionYear":-5350,"tectonicSetting":"Subduction zone / Continental crust (> 25 km)","lat":39.958,"lon":140.854},{"id":283260,"name":"Akita-Yakeyama","country":"Japan","type":"Stratovolcano","elevationM":1366,"lastEruptionYear":1997,"tectonicSetting":"Subduction zone / Continental crust (> 25 km)","lat":39.964,"lon":140.757},{"id":283262,"name":"Megata","country":"Japan","type":"Maar(s)","elevationM":160,"lastEruptionYear":-2050,"tectonicSetting":"Subduction zone / Continental crust (> 25 km)","lat":39.95,"lon":139.725},